NWIS_site_id,NWIS_sitename,Drainage_area_mi2,Mean_Basin_Elev_ft,Perc_Forest,Perc_Develop,Perc_Imperv,Perc_Herbace,Perc_Slop_30,Mean_Ann_Precip_in,Ann_low_cfs,Ann_mean_cfs,Ann_hi_cfs,station_nm,dec_lat_va,dec_long_va,alt_va,alt_acy_va,huc_cd,parm_cd,begin_date,end_date,drain_sqkm,geometry
2378780,"D'OLIVE CREEK NEAR BRIDGEHEAD, AL",5.21,,,53.9,11.5,,,,9.99,11,12,"D'Olive Creek Near Bridgehead, AL",30.65206944,-87.8896472,,,,60,1/4/2017,10/25/2020,,POINT (-87.8896472 30.65206944)
2339495,OSELIGEE CREEK NEAR LANETT AL,86.3,,,4.49,0.64,,,,35.8,100,211,"Oseligee Creek Near Lanett, AL",32.9015159,-85.1963308,,,3130002,60,7/26/2006,11/27/2022,222.8292,POINT (-85.1963308 32.9015159)
2342500,"UCHEE CREEK NEAR FORT MITCHELL, AL.",322,,,8.68,1.42,,,,124.9,404,859.4,"Uchee Creek Near Fort Mitchell, AL",32.31681467,-85.014931,201.76,0.01,3130003,60,10/1/1946,11/27/2022,830.574,POINT (-85.014931 32.31681467)
2369800,BLACKWATER RIVER NEAR BRADLEY AL,0.0444,,,10.2,0.78,,,,48,145,341.3,"Blackwater River Near Bradley, AL",31.02767985,-86.7099567,121.87,0.1,3140104,60,10/1/1967,11/27/2022,227.5129,POINT (-86.7099567 31.02767985)
2377570,"STYX RIVER NEAR ELSANOR, AL.",191,,,4.72,0.74,,,,157.9,439,815.9,"Styx River Near Elsanor, AL",30.6057484,-87.5472057,,,3140106,60,10/1/1987,11/27/2022,495.4464,POINT (-87.5472057 30.6057484)
2378170,"WOLF CREEK BELOW FOLEY, ALA",5.16,,,44.1,13.2,,,,7.44,13,22.2,"Wolf Creek Below Foley, Ala",30.3882541,-87.652763,,,3140107,60,12/5/2007,11/27/2022,13.7232,POINT (-87.652763 30.3882541)
2361000,"CHOCTAWHATCHEE RIVER NEAR NEWTON, AL.",7.72E-05,,,0,0,,,,294.3,907,1654,"Choctawhatchee River Near Newton, AL",31.3429492,-85.6104912,138.56,0.01,3140201,60,12/1/1921,11/27/2022,1781.611,POINT (-85.6104912 31.3429492)
2361500,CHOCTAWHATCHEE RIVER NEAR BELLWOOD AL,,,,,,,,,651,1722,2756,"Choctawhatchee River Near Bellwood, AL",31.15934229,-85.7843789,,,3140201,60,12/1/1921,11/27/2022,3313.061,POINT (-85.7843789 31.15934229)
2362240,"LITTLE DOUBLE BRIDGES CREEK NR ENTERPRISE, AL.",,,,,,,,,14,34,63.9,"Little Double Bridges Creek Nr Enterprise, AL",31.27239318,-85.9582737,195,0.01,3140201,60,8/7/1985,11/27/2022,55.2006,POINT (-85.9582737 31.27239318)
2363000,PEA RIVER NEAR ARITON AL,498,,,4.11,0.42,,,,181,562,929.9,"Pea River Near Ariton, AL",31.59488716,-85.7829975,246.72,0.01,3140202,60,10/1/1938,11/27/2022,1292.513,POINT (-85.7829975 31.59488716)
2364500,PEA RIVER NEAR SAMSON AL,1180,,,5.1,0.66,,,,514.7,1477,2805,"Pea River Near Samson, AL",31.11267588,-86.0993868,97.95,0.01,3140202,60,9/1/1904,11/27/2022,3066.129,POINT (-86.0993868 31.11267588)
2371500,CONECUH RIVER AT BRANTLEY AL,7.72E-05,,,,0,,,,174.3,631,1359,"Conecuh River At Brantley, AL",31.57349458,-86.2516226,226.2,0.01,3140301,60,10/1/1937,11/27/2022,1292.785,POINT (-86.2516226 31.57349458)
2372422,"CONECUH RIVER BEL PT A DAM NR RIVER FALLS, AL.",0.00738,,,12,0.36,,,,426.1,1389,2501,"Conecuh River Bel Pt A Dam Nr River Falls, AL",31.3612799,-86.5196826,120.8,0.01,3140301,45,4/29/1999,9/29/2009,3261.999,POINT (-86.5196826 31.3612799)
2372430,"CONECUH RIVER AT RIVER FALLS, ALABAMA",1260,,,4.35,0.5,,,,625.8,1447,2094,"Conecuh River At River Falls, Alabama",31.34822474,-86.5294047,120.8,0.1,3140301,60,10/1/2012,11/28/2022,,POINT (-86.5294047 31.34822474)
2372250,PATSALIGA CREEK NEAR BRANTLEY AL,0.000116,,,,0,,,,168.8,571,1306,"Patsaliga Creek Near Brantley, AL",31.59627177,-86.40551809,220,0.01,3140302,60,10/1/1974,11/27/2022,1145.223,POINT (-86.40551809 31.59627177)
2373000,SEPULGA RIVER NEAR MCKENZIE AL,470,,,4.85,0.67,,,,115.7,664,1354,"Sepulga River Near Mckenzie, AL",31.4537758,-86.7869139,155.96,0.1,3140303,60,10/1/1937,11/27/2022,1213.604,POINT (-86.7869139 31.4537758)
2374250,"CONECUH RIVER AT STATE HWY 41 NEAR BREWTON, AL.",2650,,,3.94,0.47,,,,908,3425,6426,"Conecuh River At State Hwy 41 Near Brewton, AL",31.06712374,-87.0616352,43.1,0.1,3140304,60,4/16/1999,11/27/2022,6857.865,POINT (-87.0616352 31.06712374)
2374500,MURDER CREEK NEAR EVERGREEN AL,176,,,3.1,0.38,,,,96.9,283,535.6,"Murder Creek Near Evergreen, AL",31.41850006,-86.9866403,178.29,0.01,3140304,45,10/1/2000,9/29/2009,445.7151,POINT (-86.9866403 31.41850006)
2374700,"MURDER CREEK AT STATE HWY 41 AT BREWTON, AL.",0.000193,,,100,34.8,,,,233.6,653,1129,"Murder Creek At State Hwy 41 At Brewton, AL",31.10101137,-87.06885829,,,3140304,45,10/1/2000,11/27/2022,1126.634,POINT (-87.06885829 31.10101137)
2374745,"BURNT CORN CREEK AT STATE HWY 41 NEAR BREWTON, AL.",182,,,3.76,0.41,,,,84.6,269,444.3,"Burnt Corn Creek At State Hwy 41 Near Brewton, AL",31.1298991,-87.0871928,,,3140304,60,3/10/1999,11/27/2022,472.1139,POINT (-87.0871928 31.1298991)
2374950,BIG ESCAMBIA CR AT SARDINE BR NR STANLEY CROSSROAD,,,,,,,,,136.9,306,484.1,"Big Escambia Cr At Sardine Br Nr Stanley, Crossroad",31.12962115,-87.3705353,,,3140305,60,5/24/2000,11/27/2022,503.5059,POINT (-87.3705353 31.12962115)
2375000,BIG ESCAMBIA CREEK AT FLOMATON AL,332,,,3.92,0.66,,,,513.1,669,864.3,"Big Escambia Creek At Flomaton, AL",31.01073709,-87.2627518,47.76,0.01,3140305,60,1/1/1939,11/27/2022,,POINT (-87.2627518 31.01073709)
2397530,"COOSA RIVER AT STATE LINE, AL/GA",4360,,,12.2,2.63,,,,4509,7493,9993,"Coosa River At State Line, Al/Ga",34.20176124,-85.447458,549.5,0.1,3150105,10,6/22/1975,11/28/2022,,POINT (-85.447458 34.20176124)
2398300,CHATTOOGA RIVER ABOVE GAYLESVILLE AL,,,,,,,,,226.6,626,990.1,"Chattooga River Above Gaylesville, AL",34.29036965,-85.5091268,562.11,0.01,3150105,60,1/1/1959,11/27/2022,946.8069,POINT (-85.5091268 34.29036965)
2399200,LITTLE RIVER NEAR BLUE POND AL,,,,,,,,,133.7,471,728.9,"Little River Near Blue Pond, AL",34.2889813,-85.6805204,589.34,0.01,3150105,60,10/1/1958,11/27/2022,515.3337,POINT (-85.6805204 34.2889813)
2400100,TERRAPIN CREEK AT ELLISVILLE AL,0.000193,,,100,80.4,,,,129.2,370,536.1,"Terrapin Creek At Ellisville, AL",34.06509836,-85.6141287,539.07,0.01,3150105,10,12/2/2017,11/27/2022,654.7608,POINT (-85.6141287 34.06509836)
2400680,"BIG WILLS CREEK AT STATE HWY 35 NR FORT PAYNE, AL",55.8,,,19.8,5.89,,,,28.2,86,130.8,"Big Wills Creek At State Hwy 35 Nr Fort Payne, AL",34.43814386,-85.7671907,,,3150106,60,10/1/2002,11/27/2022,144.8163,POINT (-85.7671907 34.43814386)
2401000,BIG WILLS CREEK NEAR REECE CITY,,,,,,,,,96.8,305,479.2,"Big Wills Creek Near Reece, City",34.0981515,-86.0380286,570,0.01,3150106,60,10/1/1943,11/27/2022,473.5224,POINT (-86.0380286 34.0981515)
2401390,BIG CANOE CREEK AT ASHVILLE AL,141,,,6.46,0.78,,,,67.9,272,425.4,"Big Canoe Creek At Ashville, AL",33.8398211,-86.2627559,529.56,0.1,3150106,60,10/1/1965,11/27/2022,365.3478,POINT (-86.2627559 33.8398211)
2401895,"OHATCHEE CREEK AT OHATCHEE, AL",216,,,10.9,1.85,,,,258.5,397,558.4,"Ohatchee Creek At Ohatchee, AL",33.7803769,-85.9983035,,,3150106,60,11/1/2013,11/27/2022,,POINT (-85.9983035 33.7803769)
2403310,"CHOCCOLOCCO CREEK NEAR BOILING SPRING, ALABAMA",,,,,,,,,82.9,288,466.8,"Choccolocco Creek Near Boiling Spring, Alabama",33.60204998,-85.7852411,,,3150106,60,10/1/2002,11/27/2022,496.5012,POINT (-85.7852411 33.60204998)
2404400,CHOCCOLOCCO CREEK AT JACKSON SHOAL NR LINCOLN AL,480,,,13.1,2.6,,,,229.9,721,1203,"Choccolocco Creek At Jackson Shoal Nr Lincoln, AL",33.5484383,-86.0969163,448.5,0.01,3150106,60,10/1/1960,11/27/2022,1240.422,POINT (-86.0969163 33.5484383)
2405500,KELLY CREEK NEAR VINCENT AL,194,,,6.29,0.86,,,,100,340,514.9,"Kelly Creek Near Vincent, AL",33.44760728,-86.386924,404.09,0.01,3150106,10,7/12/2008,11/27/2022,502.3188,POINT (-86.386924 33.44760728)
2406500,TALLADEGA CREEK AT ALPINE AL,149,,,8.75,1.38,,,,87,242,416.9,"Talladega Creek At Alpine, AL",33.35955497,-86.2341414,431.34,0.01,3150106,60,8/17/1900,11/27/2022,386.1099,POINT (-86.2341414 33.35955497)
2406930,"SHIRTEE CREEK NEAR ODENA, ALABAMA",,,,,,,,,21.1,35,51.9,"Shirtee Creek Near Odena, Alabama",33.21178164,-86.273308,,,3150107,60,7/14/2010,11/27/2022,,POINT (-86.273308 33.21178164)
2407514,"YELLOWLEAF CREEK NEAR WESTOVER, AL",,,,,,,,,67.7,242,407.5,"Yellowleaf Creek Near Westover, AL",33.32066689,-86.4952592,,,3150107,10,7/12/2008,11/27/2022,367.1271,POINT (-86.4952592 33.32066689)
2408150,"WALNUT CREEK ABOVE CLANTON, ALA",35.7,,,18.8,4.79,,,,42.9,62,105.1,"Walnut Creek Above Clanton, Ala",32.89027778,-86.5791667,,,3150107,60,11/19/2014,11/27/2022,,POINT (-86.5791667 32.89027778)
2408540,HATCHET CREEK BELOW ROCKFORD AL,262,,,4.17,0.29,,,,123.4,401,756.6,"Hatchet Creek Below Rockford, AL",32.9167896,-86.2702507,377,5,3150107,60,10/1/1980,11/27/2022,682.4097,POINT (-86.2702507 32.9167896)
2411930,"TALLAPOOSA RIVER AT US 78, NEAR TALLAPOOSA, GA",272,1165,,7.84,1.27,,,,102.7,313,542.5,"Tallapoosa River At Us 78, Near Tallapoosa, GA",33.74138889,-85.33613889,920,20,3150108,60,12/13/1999,11/27/2022,704.7882,POINT (-85.33613889 33.74138889)
2411930,"TALLAPOOSA RIVER AT US 78, NEAR TALLAPOOSA, GA",272,1165,,7.84,1.27,,,,102.7,313,542.5,"Tallapoosa River At Us 78, Near Tallapoosa, GA",33.74138889,-85.33613889,920,20,3150108,60,12/13/1999,11/27/2022,704.7882,POINT (-85.33613889 33.74138889)
2412000,"TALLAPOOSA RIVER NEAR HEFLIN, AL",448,,,6.95,1.22,,,,164.9,639,1068,"Tallapoosa River Near Heflin, AL",33.622885,-85.5132894,830,0.01,3150108,10,12/6/2017,11/23/2020,1160.095,POINT (-85.5132894 33.622885)
2413300,LITTLE TALLAPOOSA RIVER NEAR NEWELL AL,406,,,12.8,3.21,,,,175.6,573,881.9,"Little Tallapoosa River Near Newell, AL",33.43733498,-85.399118,842.92,0.01,3150108,10,12/6/2017,12/20/2020,1050.971,POINT (-85.399118 33.43733498)
2414500,TALLAPOOSA RIVER AT WADLEY AL,1670,,,6.46,1.28,,,,785.3,2484,4293,"Tallapoosa River At Wadley, AL",33.11678684,-85.5607875,599.87,0.01,3150109,60,10/1/1923,11/27/2022,4336.82,POINT (-85.5607875 33.11678684)
2414715,"TALLAPOOSA RIVER NR NEW SITE, AL.(HORSESHOE BEND)",0.000154,,,0,0,,,,1005,3078,5346,"Tallapoosa River Nr New Site, Al.(Horseshoe, Bend)",32.97734526,-85.7396808,528.62,0.01,3150109,60,11/15/1985,11/27/2022,5330.349,POINT (-85.7396808 32.97734526)
2415000,HILLABEE CREEK NEAR HACKNEYVILLE AL,190,,,4.18,0.33,,,,91,302,578.4,"Hillabee Creek Near Hackneyville, AL",33.06539786,-85.8780186,557.92,0.01,3150109,60,7/1/1952,11/27/2022,491.3829,POINT (-85.8780186 33.06539786)
2418230,"SOUGAHATCHEE CREEK AT CO RD 188 NR LOACHAPOKA, AL.",,,,,,,,,41.4,91,165.5,"Sougahatchee Creek At Co Rd 188 Nr Loachapoka, AL",32.62680015,-85.5880076,522,0.2,3150110,60,11/9/1999,11/27/2022,183.9987,POINT (-85.5880076 32.62680015)
2418760,CHEWACLA CREEK AT CHEWACLA STATE PARK NR AUBURN,46.3,,,23.7,5.82,,,,18.6,53,100.3,"Chewacla Creek At Chewacla State Park Nr, Auburn",32.5481918,-85.4805044,,,3150110,60,10/8/2002,11/27/2022,120.2193,POINT (-85.4805044 32.5481918)
2419000,UPHAPEE CREEK NEAR TUSKEGEE AL,7.72E-05,,,100,14,,,,97.4,388,846,"Uphapee Creek Near Tuskegee, AL",32.4768045,-85.69495359,223.65,0.01,3150110,60,10/1/1939,11/27/2022,862.1604,POINT (-85.69495359 32.4768045)
2419890,TALLAPOOSA RIVER NEAR MONT.-MONT. WATER WORKS,3.86E-05,,,,0,,,,2056,5903,10100,"Tallapoosa River Near Mont.-Mont. Water, Works",32.43985898,-86.1955222,129.13,0.01,3150110,10,7/23/2005,10/17/2019,12066.89,POINT (-86.1955222 32.43985898)
2420000,"ALABAMA RIVER NEAR MONTGOMERY, AL.",,,,,,,,,10030,24175,38550,"Alabama River Near Montgomery, AL",32.41152597,-86.40830579,97.9,0.01,3150201,60,10/1/1927,11/27/2022,39126.16,POINT (-86.40830579 32.41152597)
2421000,CATOMA CREEK NEAR MONTGOMERY AL,,,,,,,,,107.3,355,854.1,"Catoma Creek Near Montgomery, AL",32.30736239,-86.2994126,151.02,0.01,3150201,60,7/1/1952,11/27/2022,759.1977,POINT (-86.2994126 32.30736239)
2422500,MULBERRY CREEK AT JONES AL,204,,,4.18,0.57,,,,109.1,298,577.2,"Mulberry Creek At Jones, AL",32.5829103,-86.9035991,165.23,0.01,3150201,60,10/1/1938,11/27/2022,527.5476,POINT (-86.9035991 32.5829103)
2423130,"CAHABA RIVER AT TRUSSVILLE, AL.",20,,,20.3,4.78,,,,5.6,34,65,"Cahaba River At Trussville, AL",33.62232504,-86.599431,673.47,0.01,3150202,10,9/8/1988,10/4/2022,51.7203,POINT (-86.599431 33.62232504)
2423160,CAHABA RIVER NEAR WHITES CHAPEL AL,50.9,,,24.9,6.49,,,,61.5,105,152.7,"Cahaba River Near Whites Chapel, AL",33.60371416,-86.5491517,,,3150202,10,8/8/2011,11/27/2022,,POINT (-86.5491517 33.60371416)
2423380,CAHABA RIVER NEAR MOUNTAIN BROOK AL,140,,,21.9,5.27,,,,69.5,251,419,"Cahaba River Near Mountain Brook, AL",33.4817724,-86.7127653,443.99,0.01,3150202,10,8/7/1987,11/27/2022,363.1473,POINT (-86.7127653 33.4817724)
2423397,"LITTLE CAHABA RIVER BELOW LEEDS, AL.",16.6,,,46,13.9,,,,20.9,35,49.5,"Little Cahaba River Below Leeds, AL",33.53454886,-86.5624847,595.63,0.01,3150202,10,6/16/1995,11/27/2022,43.94812,POINT (-86.5624847 33.53454886)
2423400,"LITTLE CAHABA RIVER NR JEFFERSON PARK, AL.",,,,,,,,,23.8,48,81.3,"Little Cahaba River Nr Jefferson Park, AL",33.4998273,-86.6141521,556.57,0.01,3150202,60,7/23/1986,11/27/2022,62.6193,POINT (-86.6141521 33.4998273)
2423414,LITTLE CAHABA RIVER AT CAH BEA RD NR CAHABA HTS AL,47.2,,,33.6,9.28,,,,47.7,96,145.9,"Little Cahaba River At Cah Bea Rd Nr Cahaba Hts, AL",33.43982948,-86.6988758,,,3150202,60,8/1/2003,11/27/2022,122.4909,POINT (-86.6988758 33.43982948)
2423425,CAHABA RIVER NEAR CAHABA HEIGHTS AL,201,,,26.8,6.86,,,,61.1,294,496.2,"Cahaba River Near Cahaba Heights, AL",33.4156637,-86.7397099,405.17,0.18,3150202,60,8/1/1975,11/27/2022,519.8841,POINT (-86.7397099 33.4156637)
2423496,"CAHABA RIVER NEAR HOOVER, AL",226,,,31.1,7.92,,,,82.7,368,597.8,"Cahaba River Near Hoover, AL",33.3692767,-86.7841551,379.7,0.01,3150202,10,11/23/1988,11/27/2022,585.7911,POINT (-86.7841551 33.3692767)
2423500,CAHABA RIVER NEAR ACTON AL,229,,,31.7,8.21,,,,102.7,412,646.9,"Cahaba River Near Acton, AL",33.36344373,-86.8130446,375,0.01,3150202,60,10/1/1938,11/27/2022,593.7696,POINT (-86.8130446 33.36344373)
2423555,CAHABA RIVER NEAR HELENA AL,334,,,36.7,10.1,,,,150.5,581,903.8,"Cahaba River Near Helena, AL",33.28455786,-86.8824901,357,0.01,3150202,60,10/1/1995,11/27/2022,866.304,POINT (-86.8824901 33.28455786)
2423571,SHADES CREEK AT ELDER ST NEAR SPRINGDALE AL,,,,,,,,,17.6,25,29.7,"Shades Creek At Elder St Near Springdale, AL",33.52093809,-86.7169325,693,0.01,3150202,45,10/3/2017,11/27/2022,,POINT (-86.7169325 33.52093809)
2423586,"SHADES CREEK NR HOMEWOOD, ALA",27,,,67,20.5,,,,45.9,59,80.6,"Shades Creek Nr Homewood, Ala",33.4487185,-86.8136007,,,3150202,60,2/23/2001,11/27/2022,,POINT (-86.8136007 33.4487185)
2423630,SHADES CREEK NEAR GREENWOOD AL,0.0417,,,28.5,3.05,,,,41.5,139,210.4,"Shades Creek Near Greenwood, AL",33.3262234,-86.9497141,478.52,0.01,3150202,60,10/1/1964,11/27/2022,185.9544,POINT (-86.9497141 33.3262234)
2423647,CAHABA RIVER NEAR WEST BLOCTON AL,,,,,,,,,514.4,1228,1790,,,,,,,,,,,
2424000,CAHABA RIVER AT CENTREVILLE AL,,,,,,,,,505.3,1636,2767,"Cahaba River At Centreville, AL",32.9451238,-87.1391623,180.81,0.01,3150202,60,8/1/1901,11/27/2022,2656.627,POINT (-87.1391623 32.9451238)
2424590,"CAHABA RIVER NEAR SUTTLE, AL.",1480,,,15.3,3.7,,,,742.1,2224,3574,,,,,,,,,,,
2425000,CAHABA RIVER NEAR MARION JUNCTION AL,7.72E-05,,,0,0,,,,894.6,2810,4866,"Cahaba River Near Marion Junction, AL",32.44402456,-87.1802715,86.72,0.01,3150202,60,10/1/1938,11/27/2022,4572.621,POINT (-87.1802715 32.44402456)
2427250,"PINE BARREN CREEK NEAR SNOW HILL, AL.",261,,,2.57,0.16,,,,109.2,337,521.8,"Pine Barren Creek Near Snow Hill, AL",31.99625809,-87.0683187,126.6,0.01,3150203,60,10/1/1989,11/27/2022,675.2439,POINT (-87.0683187 31.99625809)
2428400,ALABAMA RIVER AT CLAIBORNE L&D NEAR MONROEVILLE,7.72E-05,,,50,0,,,,9597,30604,48810,"Alabama River At Claiborne L&D Near, Monroeville",31.61515849,-87.550548,0,0.1,3150204,60,10/1/1975,11/27/2022,,POINT (-87.550548 31.61515849)
2438000,BUTTAHATCHEE RIVER BELOW HAMILTON AL,0.052,,,23.6,4.84,,,,244.4,555,1040,"Buttahatchee River Below Hamilton, AL",34.10621294,-87.9894765,360.5,0.1,3160103,60,1/1/1951,11/27/2022,724.2138,POINT (-87.9894765 34.10621294)
2444160,"TOMBIGBEE RIVER AT BEVILL L&D NR PICKENSVILLE, AL",5750,,,5.91,1.15,,,,3454,8765,18840,"Tombigbee River At Bevill L&D Nr Pickensville, AL",33.21067874,-88.2886454,0,0.01,3160106,60,10/1/1980,11/27/2022,14902.8,POINT (-88.2886454 33.21067874)
2447025,"TOMBIGBEE R AT HEFLIN L&D NR GAINESVILLE, AL",0.000116,,,,0,,,,4026,11378,24800,"Tombigbee R At Heflin L&D Nr Gainesville, AL",32.8481856,-88.1561363,142.44,0.18,3160106,60,3/17/1978,11/27/2022,18672.03,POINT (-88.1561363 32.8481856)
2446500,"SIPSEY RIVER NR ELROD, AL",7.72E-05,,,50,0,,,,328.3,885,1583,"Sipsey River Nr Elrod, AL",33.25706249,-87.7764022,197.81,0.01,3160107,60,9/1/1928,11/27/2022,1368.045,POINT (-87.7764022 33.25706249)
2448500,"NOXUBEE RIVER NR GEIGER, AL",3.86E-05,,,,9,,,,455.7,1648,3909,"Noxubee River Nr Geiger, AL",32.9326287,-88.2978103,86.08,0.01,3160108,60,3/1/1939,11/27/2022,2842.617,POINT (-88.2978103 32.9326287)
2448500,"NOXUBEE RIVER NR GEIGER, AL",3.86E-05,,,,9,,,,455.7,1648,3909,"Noxubee River Nr Geiger, AL",32.9326287,-88.2978103,86.08,0.01,3160108,60,3/1/1939,11/27/2022,2842.617,POINT (-88.2978103 32.9326287)
2448900,"BODKA CREEK NEAR GEIGER, AL.",159,,,3.99,0.38,,,,49.5,210,426.5,"Bodka Creek Near Geiger, AL",32.80707585,-88.3119761,104.78,0.01,3160108,60,10/1/1990,11/22/2022,411.8175,POINT (-88.3119761 32.80707585)
2449838,"DUCK RIVER ABOVE HWY 278 NEAR BERLIN, AL",37.1,,,7.24,1.52,,,,45.4,46,46.2,"Duck River Above Hwy 278 Near Berlin, AL",34.1725,-86.69388889,,,3160109,60,10/15/2015,11/27/2022,,POINT (-86.69388889 34.1725)
2449882,"BLUE SPRINGS CREEK NEAR BLOUNTSVILLE, AL.",11.9,,,10.8,2.56,,,,4.51,18,29.4,"Blue Springs Creek Near Blountsville, AL",34.0798198,-86.60777,650,10,3160109,60,10/1/1992,11/27/2022,30.3696,POINT (-86.60777 34.0798198)
2450000,"MULBERRY FORK NEAR GARDEN CITY, AL.",358,,,10.8,2.56,,,,188.9,698,1086,"Mulberry Fork Near Garden City, AL",34.01204356,-86.73666329,380.54,0.01,3160109,60,10/1/1928,11/27/2022,930.0483,POINT (-86.73666329 34.01204356)
2450180,"MULBERRY FORK NEAR ARKADELPHIA, AL.",,,,,,,,,242.8,899,1426,"Mulberry Fork Near Arkadelphia, AL",33.87204689,-86.9222211,270.23,0.01,3160109,60,10/1/1976,11/27/2022,1264.127,POINT (-86.9222211 33.87204689)
2453000,BLACKWATER CREEK NEAR MANCHESTER AL,182,,,5.41,0.66,,,,107.5,358,525.1,"Blackwater Creek Near Manchester, AL",33.90843985,-87.2569514,401.04,0.01,3160109,60,10/1/1938,11/27/2022,471.1806,POINT (-87.2569514 33.90843985)
2453500,MULBERRY FORK AT CORDOVA AL,7.72E-05,,,,0,,,,2790,3331,4449,"Mulberry Fork At Cordova, AL",33.75760677,-87.1702791,243.6,0.01,3160109,10,8/23/2012,11/25/2022,,POINT (-87.1702791 33.75760677)
2454055,"LOST CREEK ABOVE PARRISH, AL.",3.95,,,2.4,0.0957,,,,79.2,276,461.2,"Lost Creek Above Parrish, AL",33.7417756,-87.3269483,,,3160109,60,10/1/1992,1/30/2022,370.9807,POINT (-87.3269483 33.7417756)
2450250,SIPSEY FORK NEAR GRAYSON AL,89.4,,,1.35,0.0792,,,,58.2,170,272.1,"Sipsey Fork Near Grayson, AL",34.28537757,-87.3989084,540,0.01,3160110,10,4/13/2012,11/27/2022,231.8252,POINT (-87.3989084 34.28537757)
2450825,"CLEAR C AT NEW HOPE CHURCH NR POPLAR SPRINGS, AL.",102,,,7.01,1.34,,,,75.8,206,334.2,"Clear C At New Hope Church Nr Poplar Springs, AL",34.08121506,-87.422793,,,3160110,60,10/1/1980,11/27/2022,263.4417,POINT (-87.422793 34.08121506)
2455000,"LOCUST FORK NEAR CLEVELAND, AL.",303,,,9.01,2.01,,,,164.7,540,859.8,"Locust Fork Near Cleveland, AL",34.02454235,-86.5741573,536.94,0.01,3160111,60,12/1/1936,11/27/2022,784.944,POINT (-86.5741573 34.02454235)
2455185,BLACKBURN FORK LITTLE WARRIOR R NR HOLLY SPRINGS,36.2,,,7.12,0.89,,,,44.1,68,101.4,"Blackburn Fork Little Warrior R Nr Holly, Springs",33.8606544,-86.4458178,,,3160111,60,1/31/1998,11/27/2022,94.36591,POINT (-86.4458178 33.8606544)
2455980,TURKEY CREEK AT SEWAGE PLANT NEAR PINSON AL,27.2,,,32.2,6.37,,,,14.9,52,81.1,"Turkey Creek At Sewage Plant Near Pinson, AL",33.71121273,-86.6961013,501.69,0.01,3160111,10,1/5/1989,11/27/2022,71.4042,POINT (-86.6961013 33.71121273)
2456000,TURKEY CREEK AT MORRIS AL,7.72E-05,,,0,0,,,,85.3,155,214.3,"Turkey Creek At Morris, AL",33.74037995,-86.8124936,345.18,0.01,3160111,60,1/1/1944,11/27/2022,209.3562,POINT (-86.8124936 33.74037995)
2456500,"LOCUST FORK AT SAYRE, AL.",888,,,9,1.71,,,,417.5,1539,2506,"Locust Fork At Sayre, AL",33.7098268,-86.9833305,258.64,0.01,3160111,60,10/1/1928,11/27/2022,2299.517,POINT (-86.9833305 33.7098268)
2457595,"FIVEMILE CREEK NEAR REPUBLIC, AL",51.5,,,59.7,16.3,,,,29.9,96,142.5,"Fivemile Creek Near Republic, AL",33.5970492,-86.8680483,,,3160111,10,9/28/1988,11/27/2022,133.1694,POINT (-86.8680483 33.5970492)
2457704,"FIVE MILE CREEK NR SAYRE, ALA",96.5,,,43.2,11.2,,,,274.3,275,275.1,"Five Mile Creek Nr Sayre, Ala",33.66343834,-86.9736073,,,3160111,60,4/10/2019,11/27/2022,,POINT (-86.9736073 33.66343834)
2458148,"VILLAGE CREEK AT 86TH ST NORTH AT ROEBUCK, AL.",4,,,81.5,18.6,,,,6.12,9,13.8,"Village Creek At 86Th St North At Roebuck, AL",33.5770483,-86.7188778,,,3160111,10,4/26/2000,11/27/2022,,POINT (-86.7188778 33.5770483)
2458190,TRIB TO VILLAGE CREEK AT 50th ST IN BIRMINGHAM,3.35,,,88.3,30.4,,,,5.47,8,9.09,"Trib To Village Creek At 50Th St In, Birmingham",33.54843779,-86.7613783,599.32,0.21,3160111,60,2/15/2012,11/27/2022,,POINT (-86.7613783 33.54843779)
2458300,"VILLAGE CREEK AT 24TH ST. AT BIRMINGHAM, AL",25.8,,,92.1,36.2,,,,40.6,56,76.9,"Village Creek At 24Th St. At Birmingham, AL",33.54260504,-86.8174907,543.38,0.1,3160111,60,6/1/1988,10/11/2021,66.8169,POINT (-86.8174907 33.54260504)
2458450,"VILLAGE CREEK AT AVENUE W AT ENSLEY, AL",33.1,,,92.3,38.5,,,,31.9,80,120.7,"Village Creek At Avenue W At Ensley, AL",33.5176059,-86.8791584,505.16,0.01,3160111,10,5/14/1991,11/27/2022,85.9473,POINT (-86.8791584 33.5176059)
2458502,"VILLAGE CREEK NEAR PRATT CITY, ALABAMA",,,,,,,,,63.5,94,131.7,"Village Creek Near Pratt City, Alabama",33.5239948,-86.8911032,500.22,0.2,3160111,10,7/26/2014,11/27/2022,,POINT (-86.8911032 33.5239948)
2458600,"VILLAGE CREEK NEAR DOCENA, ALABAMA",,,,,,,,,68.4,167,232.2,"Village Creek Near Docena, Alabama",33.5481615,-86.9258266,,,3160111,60,6/21/1996,11/27/2022,135.1854,POINT (-86.9258266 33.5481615)
2460500,"VILLAGE CREEK NEAR ADAMSVILLE, AL.",83.3,,,60.7,21.6,,,,298.7,299,298.7,"Village Creek Near Adamsville, AL",33.6056616,-87.0069405,340,0.01,3160111,60,11/29/2019,11/27/2022,,POINT (-87.0069405 33.6056616)
2461192,"VALLEY CREEK AT AVE W NEAR ENSLEY, AL",,,,,,,,,33.2,39,44.2,"Valley Creek At Ave W Near Ensley, AL",33.4926111,-86.8721722,522,4.3,3160112,60,1/5/2017,11/27/2022,,POINT (-86.8721722 33.4926111)
2461500,"VALLEY CREEK NEAR BESSEMER, AL",53.6,,,88.6,35,,,,66.4,125,184.7,"Valley Creek Near Bessemer, AL",33.4192762,-86.9827711,438.64,0.01,3160112,60,5/14/1975,11/27/2022,138.8301,POINT (-86.9827711 33.4192762)
2462000,VALLEY CREEK NEAR OAK GROVE AL,148,,,47.6,16.5,,,,148.6,317,600.7,"Valley Creek Near Oak Grove, AL",33.44733226,-87.1222186,294.99,0.01,3160112,60,10/1/1953,11/27/2022,384.1299,POINT (-87.1222186 33.44733226)
2462500,BLACK WARRIOR R AT BANKHEAD L&D NEAR BESSEMER AL,0.000116,,,0,0,,,,1745,6593,11000,,,,,,,,,,,
2462951,BLACK WARRIOR RIVER AT HOLT L&D NEAR HOLT AL.,,,,,,,,,1944,7440,13180,,,,,,,,,,,
2464000,NORTH RIVER NEAR SAMANTHA AL,223,,,3.45,0.29,,,,87.1,388,781.7,"North River Near Samantha, AL",33.47928058,-87.5972297,232.39,0.01,3160112,60,12/1/1938,11/27/2022,578.9448,POINT (-87.5972297 33.47928058)
2465000,BLACK WARRIOR RIVER AT NORTHPORT AL,4830,,,8.36,2.04,,,,2315,8437,13920,"Black Warrior River At Northport, AL",33.20928528,-87.5900074,0,0.01,3160112,60,1895-01-01,11/27/2022,12500.05,POINT (-87.5900074 33.20928528)
2465292,"CRIBBS MILL CREEK AT WW PLANT AT TUSCALOOSA, AL.",,,,,,,,,10.7,22,30,"Cribbs Mill Creek At Ww Plant At Tuscaloosa, AL",33.17484164,-87.5647288,139.94,0.19,3160113,60,7/25/2002,11/27/2022,26.37,POINT (-87.5647288 33.17484164)
2465493,ELLIOTTS CREEK AT MOUNDVILLE AL,7.72E-05,,,,0,,,,17.8,40,71.8,"Elliotts Creek At Moundville, AL",32.99734636,-87.6222295,147.92,0.01,3160113,60,10/1/1976,11/27/2022,83.4174,POINT (-87.6222295 32.99734636)
2466030,"BLACK WARRIOR RIVER AT SELDEN L & D NEAR EUTAW, AL",0.000116,,,100,45.7,,,,2878,9517,17760,"Black Warrior River At Selden L & D Near Eutaw, AL",32.77790835,-87.8405687,0,0.01,3160113,60,10/1/1976,11/27/2022,15053.03,POINT (-87.8405687 32.77790835)
2467000,"TOMBIGBEE R AT DEMOPOLIS L&D NEAR COATOPA, AL.",0.000193,,,0,0,,,,8370,25610,47930,"Tombigbee R At Demopolis L&D Near Coatopa, AL",32.51958077,-87.8783476,0,0.01,3160201,60,8/1/1928,11/27/2022,39877.23,POINT (-87.8783476 32.51958077)
2467500,SUCARNOOCHEE RIVER AT LIVINGSTON AL,0.000116,,,0,4.67,,,,252.7,878,1769,"Sucarnoochee River At Livingston, AL",32.57374714,-88.1933589,90.04,0.01,3160202,60,10/1/1938,11/27/2022,1574.118,POINT (-88.1933589 32.57374714)
2469761,"TOMBIGBEE R AT COFFEEVILLE L&D NR COFFEEVILLE, AL.",7.72E-05,,,0,0,,,,9520,29920,59120,"Tombigbee R At Coffeeville L&D Nr Coffeeville, AL",31.75849066,-88.1291763,0,0.1,3160203,60,10/1/1960,11/15/2022,47724.59,POINT (-88.1291763 31.75849066)
2469800,SATILPA CREEK NEAR COFFEEVILLE AL,7.72E-05,,,100,0.5,,,,50.5,241,436.9,"Satilpa Creek Near Coffeeville, AL",31.7443247,-88.0225066,39.8,0.01,3160203,60,10/1/1956,11/27/2022,422.6814,POINT (-88.0225066 31.7443247)
2470072,"BASSETT CREEK AT US HIGHWAY 43 NR THOMASVILLE, AL.",10.6,,,15.9,3.32,,,,2.98,15,30,"Bassett Creek At Us Highway 43 Nr Thomasville, AL",31.86404249,-87.7472247,292,1,3160203,60,10/1/1995,11/27/2022,27.567,POINT (-87.7472247 31.86404249)
2471001,CHICKASAW CREEK NEAR KUSHLA AL,,,,,,,,,86.9,281,503.6,"Chickasaw Creek Near Kushla, AL",30.80296466,-88.1433355,3.85,0.01,3160204,60,10/1/1951,11/27/2022,324.1945,POINT (-88.1433355 30.80296466)
2378300,"MAGNOLIA RIVER AT US 98 NEAR FOLEY, ALABAMA",16.7,,,16.9,3.74,,,,17,41,101.7,"Magnolia River At Us 98 Near Foley, Alabama",30.40658669,-87.7369323,,,3160205,45,9/30/2006,9/29/2009,44.2683,POINT (-87.7369323 30.40658669)
2378500,FISH RIVER NEAR SILVER HILL AL,56.2,,,14.6,3.3,,,,55.2,117,191.1,"Fish River Near Silver Hill, AL",30.54547146,-87.79860149,20,0.1,3160205,45,10/1/2000,11/27/2022,145.098,POINT (-87.79860149 30.54547146)
2471078,"FOWL RIVER AT HALF-MILE RD NEAR LAURENDINE, AL.",15.7,,,20.2,3.75,,,,20.1,39,67.6,"Fowl River At Half-Mile Rd Near Laurendine, AL",30.50075106,-88.1813906,16.96,0.01,3160205,60,3/9/1995,11/27/2022,44.5113,POINT (-88.1813906 30.50075106)
2479500,"ESCATAWPA RIVER NEAR WILMER, AL",,,,,,,,,792.2,900,1048,,,,,,,,,,,
2479500,"ESCATAWPA RIVER NEAR WILMER, AL",,,,,,,,,792.2,900,1048,,,,,,,,,,,
2479945,"BIG CREEK AT COUNTY RD 63 NEAR WILMER, AL.",31.6,,,2.98,0.24,,,,19.8,61,96.1,"Big Creek At County Rd 63 Near Wilmer, AL",30.85601968,-88.3338988,,,3170008,60,6/22/1990,11/27/2022,81.999,POINT (-88.3338988 30.85601968)
2479980,"CROOKED CREEK NEAR FAIRVIEW, AL.",,,,,,,,,9.96,17,28.6,"Crooked Creek Near Fairview, AL",30.78018805,-88.3188979,115,1,3170008,60,6/22/1990,11/27/2022,21.5352,POINT (-88.3188979 30.78018805)
2480002,"HAMILTON CREEK AT SNOW ROAD NEAR SEMMES, AL.",7.36,,,25.9,4.88,,,,12.7,21,37.5,"Hamilton Creek At Snow Road Near Semmes, AL",30.7260225,-88.2763955,115,1,3170008,60,6/21/1990,11/27/2022,21.213,POINT (-88.2763955 30.7260225)
2480020,BIG CREEK NEAR SEVEN HILLS AL,,,,,,,,,355.5,356,355.5,,,,,,,,,,,
2480020,BIG CREEK NEAR SEVEN HILLS AL,142,,,9.76,1.53,,,,355.5,356,355.5,,,,,,,,,,,
3572110,"CROW CREEK AT BASS, AL",131,,,1.98,0.23,,,,155.5,281,432.8,"Crow Creek At Bass, AL",34.93424968,-85.9174783,598.76,0.01,6030001,60,5/22/1975,11/27/2022,338.436,POINT (-85.9174783 34.93424968)
3572110,"CROW CREEK AT BASS, AL",131,,,1.98,0.23,,,,155.5,281,432.8,"Crow Creek At Bass, AL",34.93424968,-85.9174783,598.76,0.01,6030001,60,5/22/1975,11/27/2022,338.436,POINT (-85.9174783 34.93424968)
3572690,"SOUTH SAUTY CREEK NEAR RAINSVILLE, ALA",,,,,,,,,68.4,105,143.2,"South Sauty Creek Near Rainsville, Ala",34.4986981,-85.9296966,1100,20,6030001,60,6/1/2011,11/27/2022,,POINT (-85.9296966 34.4986981)
3572690,"SOUTH SAUTY CREEK NEAR RAINSVILLE, ALA",44.1,,,9.77,2.28,,,,68.4,105,143.2,"South Sauty Creek Near Rainsville, Ala",34.4986981,-85.9296966,1100,20,6030001,60,6/1/2011,11/27/2022,,POINT (-85.9296966 34.4986981)
3572900,TOWN CREEK NEAR GERALDINE AL,,,,,,,,,166.9,316,435.1,"Town Creek Near Geraldine, AL",34.3784235,-85.9902524,1002.52,0.01,6030001,60,12/1/2016,11/27/2022,366.5745,POINT (-85.9902524 34.3784235)
3572900,TOWN CREEK NEAR GERALDINE AL,,,,,,,,,166.9,316,435.1,"Town Creek Near Geraldine, AL",34.3784235,-85.9902524,1002.52,0.01,6030001,60,12/1/2016,11/27/2022,366.5745,POINT (-85.9902524 34.3784235)
3574100,ESTILL FORK AT ESTILLFORK AL,44.9,,,0.85,0.0472,,,,103.2,129,151.2,"Estill Fork At Estillfork, AL",34.91,-86.1683333,,,6030002,60,11/11/2015,11/27/2022,,POINT (-86.1683333 34.91)
3574100,ESTILL FORK AT ESTILLFORK AL,,,,,,,,,103.2,129,151.2,"Estill Fork At Estillfork, AL",34.91,-86.1683333,,,6030002,60,11/11/2015,11/27/2022,,POINT (-86.1683333 34.91)
3574500,PAINT ROCK RIVER NEAR WOODVILLE AL,321,,,1.52,0.17,,,,179.8,698,1095,"Paint Rock River Near Woodville, AL",34.6242547,-86.3063737,570.95,0.01,6030002,60,1/1/1936,11/27/2022,813.8025,POINT (-86.3063737 34.6242547)
3574500,PAINT ROCK RIVER NEAR WOODVILLE AL,,,,,,,,,179.8,698,1095,"Paint Rock River Near Woodville, AL",34.6242547,-86.3063737,570.95,0.01,6030002,60,1/1/1936,11/27/2022,813.8025,POINT (-86.3063737 34.6242547)
3574768,"FLINT R AT OSCAR PATTERSON ROAD NR HAZEL GREEN, AL",132,,,9.23,1.43,,,,275.2,324,371.7,"Flint R At Oscar Patterson Road Nr Hazel Green, AL",34.88064458,-86.48054629,,,6030002,60,11/8/2017,11/2/2022,,POINT (-86.48054629 34.88064458)
3574768,"FLINT R AT OSCAR PATTERSON ROAD NR HAZEL GREEN, AL",,,,,,,,,275.2,324,371.7,"Flint R At Oscar Patterson Road Nr Hazel Green, AL",34.88064458,-86.48054629,,,6030002,60,11/8/2017,11/2/2022,,POINT (-86.48054629 34.88064458)
3574975,"BRIER FORK AT MOORE'S MILL RD NR MERIDIANVILLE, AL",7.72E-05,,,,6,,,,204,250,280.4,"Brier Fork At Moore'S Mill Rd Nr Meridianville, AL",34.8450896,-86.517769,,,6030002,60,9/12/2018,11/27/2022,,POINT (-86.517769 34.8450896)
3574975,"BRIER FORK AT MOORE'S MILL RD NR MERIDIANVILLE, AL",7.72E-05,,,,6,,,,204,250,280.4,"Brier Fork At Moore'S Mill Rd Nr Meridianville, AL",34.8450896,-86.517769,,,6030002,60,9/12/2018,11/27/2022,,POINT (-86.517769 34.8450896)
3575100,"FLINT RIVER AT BROWNSBORO, AL.",373,,,11.6,2.03,,,,213.7,673,1008,"Flint River At Brownsboro, AL",34.7492568,-86.4466551,615.92,0.01,6030002,60,10/1/1998,11/27/2022,968.5789,POINT (-86.4466551 34.7492568)
3575100,"FLINT RIVER AT BROWNSBORO, AL.",,,,,,,,,213.7,673,1008,"Flint River At Brownsboro, AL",34.7492568,-86.4466551,615.92,0.01,6030002,60,10/1/1998,11/27/2022,968.5789,POINT (-86.4466551 34.7492568)
3575830,INDIAN CREEK NEAR MADISON AL,48.4,,,40.1,9.96,,,,18.6,72,121.5,"Indian Creek Near Madison, AL",34.6973134,-86.6999967,601.32,0.01,6030002,45,10/1/1970,11/27/2022,126.7238,POINT (-86.6999967 34.6973134)
3575830,INDIAN CREEK NEAR MADISON AL,48.4,,,40.1,9.96,,,,18.6,72,121.5,"Indian Creek Near Madison, AL",34.6973134,-86.6999967,601.32,0.01,6030002,45,10/1/1970,11/27/2022,126.7238,POINT (-86.6999967 34.6973134)
3576148,COTACO CREEK AT FLORETTE AL,136,,,7.29,1.41,,,,153.2,284,396.3,,,,,,,,,,,
3576250,LIMESTONE CREEK NEAR ATHENS AL,121,,,16.3,3.17,,,,64.1,217,329.9,"Limestone Creek Near Athens, AL",34.751757,-86.8233348,626.46,0.1,6030002,60,10/1/1939,11/27/2022,313.5159,POINT (-86.8233348 34.751757)
3576500,FLINT CREEK NEAR FALKVILLE AL,86.7,,,7.84,1.46,,,,119,174,259.1,"Flint Creek Near Falkville, AL",34.37315189,-86.933617,572.59,0.01,6030002,60,8/1/1952,11/27/2022,224.2539,POINT (-86.933617 34.37315189)
3577225,"SWAN CREEK BELOW ATHENS, ALA",41.1,,,26.9,7.25,,,,56.6,94,147.3,"Swan Creek Below Athens, Ala",34.7639782,-86.9463954,,,6030002,60,6/25/2009,11/27/2022,,POINT (-86.9463954 34.7639782)
3586500,BIG NANCE CREEK AT COURTLAND AL,163,,,7.67,1.32,,,,72,301,531.9,"Big Nance Creek At Courtland, AL",34.67009046,-87.3172429,537.6,0.01,6030005,60,9/1/1935,11/27/2022,423.4077,POINT (-87.3172429 34.67009046)
3590000,CYPRESS CREEK NEAR FLORENCE AL,,,,,,,,,221.8,437,586.9,"Cypress Creek Near Florence, AL",34.8078655,-87.7005847,423.78,0.01,6030005,60,6/1/1934,11/27/2022,,POINT (-87.7005847 34.8078655)
3592000,"BEAR CREEK AT REDBAY, AL",261,,,6.81,1.25,,,,300.6,605,947.6,"Bear Creek At Redbay, AL",34.4439866,-88.1155963,506.57,10,6030006,60,10/1/1913,9/29/1981,678.1667,POINT (-88.1155963 34.4439866)
3592500,"BEAR CREEK AT BISHOP,AL.",0.000193,,,0,0,,,,849.8,1382,2099,"Bear Creek At, Bishop,Al",34.65592635,-88.1225408,419.91,0.01,6030006,60,10/1/1926,11/27/2022,1725.432,POINT (-88.1225408 34.65592635)
7263878,"Salt Bayou Ditch nr Humphrey, AR",130,207,,6.02,0.38,,,50.3,468.5,542,615.2,"Salt Bayou Ditch Nr Humphrey, AR",34.3947222,-91.7202778,0,0.1,,60,11/20/2018,11/27/2022,,POINT (-91.7202778 34.3947222)
7032000,"MISSISSIPPI RIVER AT MEMPHIS, TN",,,,,,,,,333200,581540,964400,"Mississippi River At Memphis, TN",35.12314616,-90.077592,184,21,8010100,60,1/1/1933,11/27/2022,,POINT (-90.077592 35.12314616)
7032000,"MISSISSIPPI RIVER AT MEMPHIS, TN",,,,,,,,,333200,581540,964400,"Mississippi River At Memphis, TN",35.12314616,-90.077592,184,21,8010100,60,1/1/1933,11/27/2022,,POINT (-90.077592 35.12314616)
7032000,"MISSISSIPPI RIVER AT MEMPHIS, TN",,,,,,,,,333200,581540,964400,"Mississippi River At Memphis, TN",35.12314616,-90.077592,184,21,8010100,60,1/1/1933,11/27/2022,,POINT (-90.077592 35.12314616)
7047855,"Whiteman's Crk at Ind Dr at Jonesboro, AR",9.21,290,,79.8,30.8,,,47.5,7.22,15,21.2,"Whiteman'S Crk At Ind Dr At Jonesboro, AR",35.8086111,-90.6422222,226.88,0.25,8020203,60,10/29/2009,11/5/2022,,POINT (-90.6422222 35.8086111)
7077652,"Lost Creek at Floyd St. at Jonesboro, AR",19.7,363,,20.5,2.61,,,47.7,10.1,21,33,"Lost Creek At Floyd St. At Jonesboro, AR",35.85,-90.7213889,267.16,0.25,8020203,60,10/8/2009,11/27/2022,,POINT (-90.7213889 35.85)
7047942,"LAnguille River near Colt, AR",0.000193,205,,,,,,,300.1,752,1518,"Languille River Near Colt, AR",35.1447222,-90.8780556,192.52,0.01,8020205,60,10/1/1970,11/27/2022,1390.728,POINT (-90.8780556 35.1447222)
7047950,"LAnguille River at Palestine, AR",1.5,206,,18.5,3.95,,,51.1,428.2,1196,3145,"Languille River At Palestine, AR",34.97277778,-90.8855556,166.68,10,8020205,60,1898-10-01,11/27/2022,1984.926,POINT (-90.8855556 34.97277778)
7076750,"White River at Georgetown, AR",,,,,,,,,18380,29982,42930,"White River At Georgetown, AR",35.12888889,-91.4497222,170.34,0.21,8020301,60,10/1/1927,11/27/2022,,POINT (-91.4497222 35.12888889)
7077000,"White River at DeValls Bluff, AR",,,,,,,,,13570,29289,47290,"White River At Devalls Bluff, AR",34.79444444,-91.4447222,152.93,10,8020301,60,10/1/1949,11/27/2022,,POINT (-91.4447222 34.79444444)
7077380,"Cache River at Egypt, AR",670,305,,5.62,0.48,,,48.1,325.7,919,1690,"Cache River At Egypt, AR",35.8575,-90.9330556,223.81,0.25,8020302,60,10/1/1964,11/27/2022,1792.358,POINT (-90.9330556 35.8575)
7077555,"Cache River near Cotton Plant, AR",1160,269,,5.67,0.49,,,48.7,807.8,1476,2631,"Cache River Near Cotton Plant, AR",35.03555556,-91.3225,164.17,10,8020302,60,4/3/1987,11/27/2022,2995.522,POINT (-91.3225 35.03555556)
7264000,"Bayou Meto near Lonoke, AR",207,313,,23.1,5.94,,,50.1,150.8,310,702.3,"Bayou Meto Near Lonoke, AR",34.73666667,-91.9158333,199.11,0.01,8020402,60,10/1/1954,11/27/2022,505.0566,POINT (-91.9158333 34.73666667)
7355870,"Gap Cr nr Wolf Pen Gap Rec Area nr Nunley, AR",3.22,1380,,4.17,0.2,,,62.4,3.91,8,12.1,"Gap Cr Nr Wolf Pen Gap Rec Area Nr Nunley, AR",34.4841111,-94.1261389,,,8040101,60,3/10/2014,11/27/2022,,POINT (-94.1261389 34.4841111)
7356000,"Ouachita River near Mount Ida, AR",414,1140,,5.03,0.78,,,59.7,313.9,752,1411,"Ouachita River Near Mount Ida, AR",34.61,-93.6975,687,14,8040101,60,10/1/1941,11/27/2022,1071.639,POINT (-93.6975 34.61)
7358250,"Whittington Cr at Whitt. Pk at Hot Springs, AR",,,,,,,,,0.29,1,1.99,"Whittington Cr At Whitt. Pk At Hot Springs, AR",34.51344444,-93.0804167,,,8040101,60,10/1/1970,11/27/2022,,POINT (-93.0804167 34.51344444)
7358253,"Whittington Cr at Tunnel Ent at Hot Springs, AR",2.16,852,,16.4,4.07,,,57.2,1.96,5,7.52,"Whittington Cr At Tunnel Ent At Hot Springs, AR",34.51716667,-93.0575,621.77,0.19,8040101,60,6/23/2008,11/28/2022,,POINT (-93.0575 34.51716667)
7358257,"Hot Sprngs Cr US of T.E. at Glade St at Hot Sp.,AR",0.81,758,,50.1,14.4,,,57.4,1.23,2,2.89,"Hot Sprngs Cr Us Of T.E. At Glade St At Hot, Sp,Ar",34.5236111,-93.0544444,636.41,0.16,8040101,60,7/11/2008,11/27/2022,,POINT (-93.0544444 34.5236111)
7358284,"Hot Springs Cr DS of Grand Ave at Hot Springs, AR",,,,,,,,,6.72,11,16,"Hot Springs Cr Ds Of Grand Ave At Hot Springs, AR",34.50277778,-93.0505556,549.72,0.03,8040101,60,7/9/2008,11/27/2022,,POINT (-93.0505556 34.50277778)
7358550,"Gulpha Creek at Hot Springs, AR",8.26,700,,8.98,2.17,,,57,4.07,8,11.8,"Gulpha Creek At Hot Springs, AR",34.50888889,-93.0091667,478.72,0.17,8040101,60,8/14/2009,11/27/2022,,POINT (-93.0091667 34.50888889)
7359002,"Ouachita River at Remmel Dam above Jones Mill, AR",0.000927,471,,8.33,0,,,,1202,2667,5322,"Ouachita River At Remmel Dam Above Jones Mill, AR",34.4261111,-92.8908333,,,8040102,60,7/10/2002,11/27/2022,4000.915,POINT (-92.8908333 34.4261111)
7359610,"Caddo River near Caddo Gap, AR",132,963,,3.14,0.38,,,59.1,143.4,274,423.2,"Caddo River Near Caddo Gap, AR",34.38277778,-93.6061111,612,141,8040102,60,10/1/1988,11/27/2022,342.2349,POINT (-93.6061111 34.38277778)
7362000,"Ouachita River at Camden, AR",5350,540,,7.37,0.96,,,55.9,3581,8559,20660,"Ouachita River At Camden, AR",33.59638889,-92.8180556,78.04,0.25,8040102,60,10/1/1928,11/27/2022,13843.42,POINT (-92.8180556 33.59638889)
7360200,"Little Missouri River near Langley, AR",67.9,1310,,2.57,0.16,,,64.4,82.6,161,269.1,"Little Missouri River Near Langley, AR",34.31166667,-93.8997222,727,14,8040103,60,10/1/1998,11/27/2022,175.9833,POINT (-93.8997222 34.31166667)
7361500,"Antoine River at Antoine, AR",,,,,,,,,111.6,295,612.9,"Antoine River At Antoine, AR",34.03888889,-93.4180556,229.33,0.01,8040103,60,10/1/1954,11/27/2022,464.2056,POINT (-93.4180556 34.03888889)
7362100,"Smackover Creek near Smackover, AR",0.000116,114,,33.3,15,,,,49.1,442,1152,"Smackover Creek Near Smackover, AR",33.37527778,-92.7766667,97.56,0.01,8040201,60,10/1/1961,11/27/2022,996.0786,POINT (-92.7766667 33.37527778)
7362500,"Moro Creek near Fordyce, AR",241,271,,5.72,1.51,,,53.9,52.3,289,828.3,,,,,,,,,,,
7362579,"South Alum Creek nr Jessieville, AR",5.32,1310,,4.14,0.25,,,61.7,4.09,10,17.4,"South Alum Creek Nr Jessieville, AR",34.79555556,-93.0069444,,,8040203,60,5/16/2009,11/27/2022,,POINT (-93.0069444 34.79555556)
7362587,"Alum Fork Saline River near Reform, AR",,,,,,,,,19.6,50,104.9,"Alum Fork Saline River Near Reform, AR",34.7975,-92.9338889,,,8040203,60,9/14/1989,11/27/2022,69.7725,POINT (-92.9338889 34.7975)
7363000,"Saline River at Benton, AR",7.72E-05,324,,100,15,,,,432.4,837,1778,"Saline River At Benton, AR",34.56777778,-92.6102778,260.91,0.01,8040203,60,10/1/1950,11/27/2022,1430.822,POINT (-92.6102778 34.56777778)
7363054,"Saline River near Shaw, AR",1.64,335,,7.26,1.34,,,53.7,1008,1272,1466,"Saline River Near Shaw, AR",34.49898229,-92.5629383,,,8040203,60,9/20/2017,11/27/2022,,POINT (-92.5629383 34.49898229)
7363200,"Saline River near Sheridan, AR",,,,,,,,,640.8,1637,3538,"Saline River Near Sheridan, AR",34.1161111,-92.4055556,152.86,0.01,8040203,60,10/1/1970,11/27/2022,2920.117,POINT (-92.4055556 34.1161111)
7363400,"Hurricane Creek below Sheridan, AR",,,,,,,,,82.3,348,985.3,"Hurricane Creek Below Sheridan, AR",34.2286111,-92.3725,,,8040203,60,10/1/1995,11/27/2022,676.3536,POINT (-92.3725 34.2286111)
7363500,"Saline River near Rye, AR",3.86E-05,115,,,,,,,862,2806,6512,"Saline River Near Rye, AR",33.7008333,-92.0258333,97.06,0.01,8040204,60,10/1/1937,11/27/2022,5429.344,POINT (-92.0258333 33.7008333)
7364133,"Bayou Bartholomew at Garrett Bridge, AR",401,214,,11.7,3.05,,,53,192.7,528,1012,"Bayou Bartholomew At Garrett Bridge, AR",33.86638889,-91.6561111,,,8040205,10,2/19/2005,6/18/2020,1049.648,POINT (-91.6561111 33.86638889)
7364150,"Bayou Bartholomew near McGehee, AR",0.00313,139,,0,0,,,,272.4,755,1317,"Bayou Bartholomew Near Mcgehee, AR",33.62777778,-91.4458333,120.48,0.01,8040205,60,10/1/1938,11/27/2022,1416.086,POINT (-91.4458333 33.62777778)
7364185,"Bayou Bartholomew near Portland, AR",0.000116,119,,0,0,,,,466.9,1431,2696,"Bayou Bartholomew Near Portland, AR",33.23555556,-91.5355556,,,8040205,60,10/1/1998,11/27/2022,2564.862,POINT (-91.5355556 33.23555556)
7367680,"Boeuf River nr Eudora, AR",571,142,,10.3,1.09,,,54.3,651.9,1224,1736,"Boeuf River Nr Eudora, AR",33.12416667,-91.3477778,,,8050001,60,4/23/2014,11/27/2022,,POINT (-91.3477778 33.12416667)
7369680,"Bayou Macon at Eudora, AR",7.72E-05,108,,100,9,,,,89.8,253,501,"Bayou Macon At Eudora, AR",33.10027778,-91.2544444,80.92,0.01,8050002,60,10/1/1988,11/27/2022,1270.986,POINT (-91.2544444 33.10027778)
7047980,"White River at Elkins, AR",182,1790,,3.2,0.26,,,52.9,332.7,435,574.7,"White River At Elkins, AR",36.0008333,-94.0036111,1176.64,0.25,11010001,60,1/10/2018,11/27/2022,,POINT (-94.0036111 36.0008333)
7048550,"West Fork White River east of Fayetteville, AR",,,,,,,,,83.9,191,423.7,"West Fork White River East Of Fayetteville, AR",36.05388889,-94.0830556,1149.48,0.25,11010001,10,10/11/2014,11/27/2022,317.6342,POINT (-94.0830556 36.05388889)
7048600,"White River near Fayetteville, AR",,,,,,,,,154.7,588,1196,"White River Near Fayetteville, AR",36.07305556,-94.0811111,1138.6,0.22,11010001,10,6/21/2017,11/27/2022,1032.986,POINT (-94.0811111 36.07305556)
7048780,"Richland Creek near Goshen, AR",119,1630,,3.61,0.38,,,49.5,70.7,129,186.4,"Richland Creek Near Goshen, AR",36.04855556,-93.9742222,1169,1.6,11010001,60,8/7/2015,11/27/2022,,POINT (-93.9742222 36.04855556)
7049000,"War Eagle Creek near Hindsville, AR",265,1610,,4.77,0.64,,,48.8,159.2,357,673,"War Eagle Creek Near Hindsville, AR",36.2,-93.855,1166.36,0.25,11010001,60,7/1/1952,11/27/2022,690.1732,POINT (-93.855 36.2)
7050500,"Kings River near Berryville, AR",529,1580,,4.24,0.51,,,47.9,291.8,643,1188,"Kings River Near Berryville, AR",36.4272222,-93.6208333,963.66,0.2,11010001,60,4/1/1939,11/26/2022,1367.203,POINT (-93.6208333 36.4272222)
7053250,"Yocum Creek near Oak Grove, AR",52.6,1300,,5.32,1.03,,,45.3,20.4,55,126.4,"Yocum Creek Near Oak Grove, AR",36.45444444,-93.3561111,974.19,0.25,11010001,60,4/15/1993,11/27/2022,136.1492,POINT (-93.3561111 36.45444444)
7055565,"Crooked Creek at Harrison, AR",71.9,1310,,12.7,3.85,,,45.9,50.7,87,112.8,"Crooked Creek At Harrison, AR",36.23257134,-93.0912871,,,11010003,60,8/22/2015,11/27/2022,,POINT (-93.0912871 36.23257134)
7055607,"Crooked Creek at Kelly Crossing at Yellville, AR",402,1110,,6.31,1.27,,,45.9,187.5,527,1256,"Crooked Creek At Kelly Crossing At Yellville, AR",36.23027778,-92.7094444,558.98,0.25,11010003,60,12/6/2006,11/27/2022,,POINT (-92.7094444 36.23027778)
7057370,"White River near Norfork, AR",,,,,,,,,3485,9688,17460,"White River Near Norfork, AR",36.2236111,-92.3,,,11010004,60,5/18/1996,11/22/2022,20812.18,POINT (-92.3 36.2236111)
7060500,"White River at Calico Rock, AR",0.000386,388,,100,58.8,,,,3125,10963,19870,"White River At Calico Rock, AR",36.11666667,-92.1430556,316.38,0.01,11010004,10,5/15/1991,11/27/2022,25801.86,POINT (-92.1430556 36.11666667)
7060710,"North Sylamore Creek near Fifty Six, AR",0.000348,695,,0,0,,,,15.1,48,130.1,"North Sylamore Creek Near Fifty Six, AR",35.99166667,-92.2138889,434.99,0.01,11010004,60,12/9/1965,11/27/2022,150.0277,POINT (-92.2138889 35.99166667)
7055646,"Buffalo River near Boxley, AR",58.8,2000,,1.95,0.0902,,,50.2,57.1,105,216.5,"Buffalo River Near Boxley, AR",35.93888889,-93.405,1142.04,0.18,11010005,60,4/17/1993,11/27/2022,152.9993,POINT (-93.405 35.93888889)
7055660,"Buffalo River at Ponca, AR",121,1890,,2.38,0.14,,,49.9,114.4,214,329.9,"Buffalo River At Ponca, AR",36.0225,-93.3547222,990.11,0.25,11010005,60,5/3/2008,11/27/2022,,POINT (-93.3547222 36.0225)
7055680,"Buffalo River at Pruitt, AR",0.000772,843,,0,0,,,,171.4,308,478.4,"Buffalo River At Pruitt, AR",36.05916667,-93.1377778,792.29,0.25,11010005,60,6/14/2008,11/27/2022,,POINT (-93.1377778 36.05916667)
7055875,"Richland Creek near Witts Spring, AR",67.3,1690,,2.28,0.12,,,50.7,64,121,229.1,"Richland Creek Near Witts Spring, AR",35.7972222,-92.9288889,988.41,0.25,11010005,60,6/1/1995,11/27/2022,174.6261,POINT (-92.9288889 35.7972222)
7056000,"Buffalo River near St. Joe, AR",828,1470,,3.2,0.23,,,48.7,402.8,1124,2522,"Buffalo River Near St. Joe, AR",35.98305556,-92.7472222,555.85,0.2,11010005,60,10/1/1939,11/27/2022,2149.364,POINT (-92.7472222 35.98305556)
7056515,"Bear Creek near Silver Hill, AR",78.5,1300,,4.36,0.59,,,47.1,60.4,116,211.3,"Bear Creek Near Silver Hill, AR",35.94,-92.7133333,632.95,0.25,11010005,10,2/25/1999,12/8/2015,209.871,POINT (-92.7133333 35.94)
7056700,"Buffalo River near Harriet, AR",1070,1370,,3.39,0.27,,,48.1,753.6,1507,2678,"Buffalo River Near Harriet, AR",36.06777778,-92.5775,479.87,0.25,11010005,60,10/1/2002,11/27/2022,2776.862,POINT (-92.5775 36.06777778)
7064000,"Black River near Corning, AR",1750,738,,5.08,0.55,,,47.2,898.6,2078,3861,"Black River Near Corning, AR",36.40194444,-90.5413889,271.34,0.2,11010007,60,10/1/1938,11/27/2022,4519.112,POINT (-90.5413889 36.40194444)
7064040,"Little River near Peach Orchard, AR",8.34,274,,2.79,0.12,,,48.3,919.1,1093,1267,"Little River Near Peach Orchard, AR",36.29716667,-90.6990833,0,1.6,11010007,60,9/30/2019,11/28/2022,,POINT (-90.6990833 36.29716667)
7069305,"Spring River at Spring Street Bridge at Hardy, AR",0.0639,433,,68.2,20.2,,,46.3,707.4,1137,1706,"Spring River At Spring Street Bridge At Hardy, AR",36.3136111,-91.4827778,342.49,0.2,11010008,60,10/1/2001,11/27/2022,2188.176,POINT (-91.4827778 36.3136111)
7069000,"Black River at Pocahontas, AR",,,,,,,,,3388,6632,9197,"Black River At Pocahontas, AR",36.25416667,-90.9702778,241.64,0.2,11010009,60,1/1/1936,11/27/2022,12557.44,POINT (-90.9702778 36.25416667)
7072500,"Black River at Black Rock, AR",7.72E-05,249,,100,28,,,,3776,9508,17650,"Black River At Black Rock, AR",36.1025,-91.0977778,229.56,0.01,11010009,60,10/1/1929,11/27/2022,18996.17,POINT (-91.0977778 36.1025)
7074420,"Black River at Elgin Ferry, AR",0.00185,220,,,,,,,5399,11034,17040,"Black River At Elgin Ferry, AR",35.76555556,-91.3002778,,,11010009,60,1/20/1999,11/27/2022,21533.09,POINT (-91.3002778 35.76555556)
7069190,Mammoth Spring at Mammoth Spring,0.22,596,,20.5,4.49,,,45.1,234.1,356,442.9,"Mammoth Spring At Mammoth, Spring",36.498118,-91.5356966,506,5,11010010,60,2/25/1981,11/27/2022,,POINT (-91.5356966 36.498118)
7069220,"Spring River near Mammoth Springs, AR",260,876,,7.69,1.73,,,45.8,403,630,1172,"Spring River Near Mammoth Springs, AR",36.46034098,-91.5268073,,,11010010,60,3/17/1988,11/27/2022,,POINT (-91.5268073 36.46034098)
7069295,"South Fork Spring River at Saddle, AR",7.72E-05,496,,100,36,,,,158.6,323,509,"South Fork Spring River At Saddle, AR",36.3522222,-91.6336111,,,11010010,60,3/19/2010,11/27/2022,,POINT (-91.6336111 36.3522222)
7069500,"Spring River at Imboden, AR",0.0034,271,,0,0,,,,469.7,1539,3044,"Spring River At Imboden, AR",36.20555556,-91.1716667,263.06,0.2,11010010,60,4/1/1936,11/27/2022,3007.21,POINT (-91.1716667 36.20555556)
7072000,"Eleven Point River near Ravenden Springs, AR",0.000463,317,,100,11,,,,435.2,1312,2509,"Eleven Point River Near Ravenden Springs, AR",36.34638889,-91.1141667,291.98,0.01,11010011,60,10/1/1929,11/27/2022,2894.979,POINT (-91.1141667 36.34638889)
7074000,"Strawberry River near Poughkeepsie, AR",0.000116,348,,,,,,,158.3,487,1143,,,,,,,,,,,
7074500,"White River at Newport, AR",0.000154,212,,100,0,,,,7864,23882,45440,"White River At Newport, AR",35.60527778,-91.2888889,194.36,0.25,11010013,60,10/1/1927,11/27/2022,,POINT (-91.2888889 35.60527778)
7074670,"Tuckerman Ditch at Tuckerman, AR",8.59,246,,10.1,1.53,,,49,4.58,8,10.1,"Tuckerman Ditch At Tuckerman, AR",35.7265,-91.2004722,234,4.3,11010013,60,8/13/2015,11/27/2022,,POINT (-91.2004722 35.7265)
7074850,"White River near Augusta, AR",3.86E-05,207,,,,,,,15730,25664,40480,"White River Near Augusta, AR",35.29444444,-91.3941667,169.72,0.2,11010013,60,6/1/1989,11/27/2022,,POINT (-91.3941667 35.29444444)
7075000,"Middle Fork of Little Red River at Shirley, AR",302,1280,,3.67,0.45,,,50.5,170.1,491,1043,"Middle Fork Of Little Red River At Shirley, AR",35.65666667,-92.2927778,498.64,0.01,11010014,60,3/1/1939,11/27/2022,781.4988,POINT (-92.2927778 35.65666667)
7075270,"South Fork of Little Red River near Scotland, AR",74.7,1330,,2.11,0.12,,,51.8,101.1,139,184.9,"South Fork Of Little Red River Near Scotland, AR",35.5697222,-92.6219444,663.57,0.25,11010014,10,8/17/2010,11/27/2022,,POINT (-92.6219444 35.5697222)
7075300,"South Fork of Little Red River at Clinton, AR",,,,,,,,,99.6,255,556.9,"South Fork Of Little Red River At Clinton, AR",35.58694444,-92.4513889,472.83,0.25,11010014,60,10/1/1961,11/27/2022,324.5139,POINT (-92.4513889 35.58694444)
7076517,"Little Red River near Dewey, AR",1340,995,,7.99,0.71,,,51,883.8,1977,3360,"Little Red River Near Dewey, AR",35.43805556,-91.7458333,205.51,0.25,11010014,60,11/22/1996,11/27/2022,3464.106,POINT (-91.7458333 35.43805556)
7191160,"Spavinaw Creek near Maysville, AR",88.8,1240,,6.99,1.12,,,47.2,22.6,90,245.3,"Spavinaw Creek Near Maysville, AR",36.36452259,-94.5513299,938.62,0.29,11070209,60,10/1/2001,11/28/2022,230.445,POINT (-94.5513299 36.36452259)
7191160,"Spavinaw Creek near Maysville, AR",88.8,1240,,6.99,1.12,,,47.2,22.6,90,245.3,"Spavinaw Creek Near Maysville, AR",36.36452259,-94.5513299,938.62,0.29,11070209,60,10/1/2001,11/28/2022,230.445,POINT (-94.5513299 36.36452259)
7191179,"Spavinaw Creek near Cherokee City, AR",,,,,,,,,27.4,106,283.7,"Spavinaw Creek Near Cherokee City, AR",36.3420235,-94.58772,906.18,0.25,11070209,60,10/1/2001,11/28/2022,267.6141,POINT (-94.58772 36.3420235)
7191179,"Spavinaw Creek near Cherokee City, AR",,,,,,,,,27.4,106,283.7,"Spavinaw Creek Near Cherokee City, AR",36.3420235,-94.58772,906.18,0.25,11070209,60,10/1/2001,11/28/2022,267.6141,POINT (-94.58772 36.3420235)
7194800,"Illinois River at Savoy, AR",167,1300,,8.66,1.66,,,48.1,34.9,184,396.6,"Illinois River At Savoy, AR",36.10305556,-94.3444444,1018.97,0.2,11110103,60,6/21/1979,11/27/2022,433.8765,POINT (-94.3444444 36.10305556)
7194880,"Osage Creek near Cave Springs, AR",34.4,1300,,61.1,23.7,,,47.1,32.7,60,103,"Osage Creek Near Cave Springs, AR",36.2814662,-94.2279838,1129.97,0.25,11110103,10,10/8/2011,6/21/2022,,POINT (-94.2279838 36.2814662)
7194906,"Spring Creek at Sanders Ave at Springdale, AR",5.46,1360,,85.9,38.6,,,46.7,3.04,10,16.1,"Spring Creek At Sanders Ave At Springdale, AR",36.19566667,-94.1358889,1258.12,0.25,11110103,60,10/7/2011,11/27/2022,,POINT (-94.1358889 36.19566667)
7194933,"Spring Creek at Hwy 112 nr Springdale, AR",35.2,1310,,43.6,16.3,,,46.8,37.9,72,112.3,"Spring Creek At Hwy 112 Nr Springdale, AR",36.24377778,-94.2391389,1085.29,0.25,11110103,10,4/18/2017,11/28/2022,,POINT (-94.2391389 36.24377778)
7195000,"Osage Creek near Elm Springs, AR",,,,,,,,,77.4,183,398.2,"Osage Creek Near Elm Springs, AR",36.22194444,-94.2883333,1054.1,0.25,11110103,60,10/1/1950,11/27/2022,335.583,POINT (-94.2883333 36.22194444)
7195400,Illinois River at Hwy. 16 near Siloam Springs AR,509,1260,,20.2,6.25,,,47.3,158.1,632,1334,"Illinois River At Hwy. 16 Near Siloam Springs, AR",36.1447222,-94.4947222,933.07,0.16,11110103,60,6/21/1979,11/27/2022,1316.445,POINT (-94.4947222 36.1447222)
7195430,"Illinois River South of Siloam Springs, AR",0.000734,936,,21.1,3.84,,,,289.7,708,1374,"Illinois River South Of Siloam Springs, AR",36.1086111,-94.5333333,913.14,0.25,11110103,60,7/14/1995,11/27/2022,1469.473,POINT (-94.5333333 36.1086111)
7195430,"Illinois River South of Siloam Springs, AR",0.000734,936,,21.1,3.84,,,,289.7,708,1374,"Illinois River South Of Siloam Springs, AR",36.1086111,-94.5333333,913.14,0.25,11110103,60,7/14/1995,11/27/2022,1469.473,POINT (-94.5333333 36.1086111)
7195800,"Flint Creek at Springtown, AR",,,,,,,,,5.71,16,35.8,"Flint Creek At Springtown, AR",36.2561111,-94.4336111,1173.47,0.01,11110103,60,7/1/1961,11/27/2022,38.2347,POINT (-94.4336111 36.2561111)
7195800,"Flint Creek at Springtown, AR",14.9,1330,,5.65,0.49,,,47.6,5.71,16,35.8,"Flint Creek At Springtown, AR",36.2561111,-94.4336111,1173.47,0.01,11110103,60,7/1/1961,11/27/2022,38.2347,POINT (-94.4336111 36.2561111)
7195855,"Flint Creek near West Siloam Springs, OK",,1230,,,,,,47.73,11.9,51,121.8,"Flint Creek Near West Siloam Springs, OK",36.2161111,-94.6052778,956.18,0.25,11110103,60,10/1/1979,11/27/2022,147.1878,POINT (-94.6052778 36.2161111)
7195855,"Flint Creek near West Siloam Springs, OK",,,,,,,,,11.9,51,121.8,"Flint Creek Near West Siloam Springs, OK",36.2161111,-94.6052778,956.18,0.25,11110103,60,10/1/1979,11/27/2022,147.1878,POINT (-94.6052778 36.2161111)
7196900,"Baron Fork at Dutch Mills, AR",41.1,1340,,4.21,0.58,,,50.2,9.54,50,118.6,"Baron Fork At Dutch Mills, AR",35.88,-94.4863889,986.47,0.01,11110103,60,4/1/1958,11/27/2022,106.3521,POINT (-94.4863889 35.88)
7196900,"Baron Fork at Dutch Mills, AR",41.1,1340,,4.21,0.58,,,50.2,9.54,50,118.6,"Baron Fork At Dutch Mills, AR",35.88,-94.4863889,986.47,0.01,11110103,60,4/1/1958,11/27/2022,106.3521,POINT (-94.4863889 35.88)
7249455,"Arkansas River at Ft. Smith, Ar.",,429,,,,,,45.08,8284,39873,89460,"Arkansas River At Ft. Smith, AR",35.3917577,-94.4324373,380.49,0.01,11110104,60,10/8/1997,11/28/2022,,POINT (-94.4324373 35.3917577)
7249455,"Arkansas River at Ft. Smith, Ar.",,,,,,,,,8284,39873,89460,"Arkansas River At Ft. Smith, AR",35.3917577,-94.4324373,380.49,0.01,11110104,60,10/8/1997,11/28/2022,,POINT (-94.4324373 35.3917577)
7249800,"Lee Creek at Short, OK",,1280,,,,,,51.14,156.5,347,671.9,"Lee Creek At Short, OK",35.5658333,-94.5319444,470.59,0.2,11110104,60,9/16/1999,11/27/2022,626.5035,POINT (-94.5319444 35.5658333)
7249800,"Lee Creek at Short, OK",,1280,,,,,,51.14,156.5,347,671.9,"Lee Creek At Short, OK",35.5658333,-94.5319444,470.59,0.2,11110104,60,9/16/1999,11/27/2022,626.5035,POINT (-94.5319444 35.5658333)
7249920,"Little Lee Creek near Nicut, OK",,1050,,,,,,49.77,56,131,257.1,"Little Lee Creek Near Nicut, OK",35.57305556,-94.5569444,505.71,0.21,11110104,60,10/1/2000,11/27/2022,264.2841,POINT (-94.5569444 35.57305556)
7249920,"Little Lee Creek near Nicut, OK",,1050,,,,,,49.77,56,131,257.1,"Little Lee Creek Near Nicut, OK",35.57305556,-94.5569444,505.71,0.21,11110104,60,10/1/2000,11/27/2022,264.2841,POINT (-94.5569444 35.57305556)
7249985,"Lee Creek near Short, OK",,459,,,,,,47.24,151.9,604,1387,"Lee Creek Near Short, OK",35.5172222,-94.4641667,429.92,0.23,11110104,60,10/1/1930,11/27/2022,1124.807,POINT (-94.4641667 35.5172222)
7249985,"Lee Creek near Short, OK",,459,,,,,,47.24,151.9,604,1387,"Lee Creek Near Short, OK",35.5172222,-94.4641667,429.92,0.23,11110104,60,10/1/1930,11/27/2022,1124.807,POINT (-94.4641667 35.5172222)
7250085,"Lee Creek at Lee Creek Reservoir near Van Buren,AR",,,,,,,,,203,574,1180,"Lee Creek At Lee Creek Reservoir Near Van, Buren,Ar",35.48444444,-94.3927778,408,10,11110104,60,10/1/1992,11/27/2022,1160.595,POINT (-94.3927778 35.48444444)
7247000,"Poteau River at Cauthron, AR",0.86,645,,7.89,0.67,,,49.6,44.9,259,647.5,"Poteau River At Cauthron, AR",34.91888889,-94.2994444,569.53,0.01,11110105,60,3/1/1939,11/27/2022,525.4191,POINT (-94.2994444 34.91888889)
7247000,"Poteau River at Cauthron, AR",0.86,645,,7.89,0.67,,,49.6,44.9,259,647.5,"Poteau River At Cauthron, AR",34.91888889,-94.2994444,569.53,0.01,11110105,60,3/1/1939,11/27/2022,525.4191,POINT (-94.2994444 34.91888889)
7249400,"James Fork near Hackett, AR",,,,,,,,,36.5,162,427.9,"James Fork Near Hackett, AR",35.1625,-94.4069444,459.71,0.01,11110105,60,4/1/1958,11/27/2022,379.5471,POINT (-94.4069444 35.1625)
7250935,"Jones Creek at Winfrey, AR",20.5,1670,,2.71,0.3,,,53.1,14,33,79.6,"Jones Creek At Winfrey, AR",35.7358333,-94.1030556,967.73,0.18,11110201,60,10/1/2000,11/27/2022,53.2044,POINT (-94.1030556 35.7358333)
7250965,"Frog Bayou at Winfrey, AR",0.0895,1380,,13.3,2.08,,,53.1,43.4,96,167.5,"Frog Bayou At Winfrey, AR",35.7222222,-94.1136111,924.4,0.2,11110201,60,10/1/2000,11/27/2022,143.046,POINT (-94.1136111 35.7222222)
7251500,"Frog Bayou at Rudy, AR",0.000232,483,,50,38.5,,,,142,323,470.2,"Frog Bayou At Rudy, AR",35.5258333,-94.2713889,475.41,0.18,11110201,60,5/1/1950,11/27/2022,561.384,POINT (-94.2713889 35.5258333)
7252000,"Mulberry River near Mulberry, AR",0.45,660,,4.99,0.44,,,49.7,196.4,612,1253,"Mulberry River Near Mulberry, AR",35.57694444,-94.0152778,433,0.2,11110201,60,6/1/1938,11/27/2022,968.9895,POINT (-94.0152778 35.57694444)
7257006,"Big Piney Creek at Highway 164 near Dover, AR",297,1400,,2.46,0.15,,,51.1,231.7,491,929.8,"Big Piney Creek At Highway 164 Near Dover, AR",35.5058333,-93.1813889,439.79,0.22,11110202,60,10/1/1992,11/27/2022,793.8243,POINT (-93.1813889 35.5058333)
7257500,"Illinois Bayou near Scottsville, AR",242,1260,,1.93,0.14,,,50.4,217.4,438,780.6,"Illinois Bayou Near Scottsville, AR",35.46638889,-93.0411111,447.63,0.18,11110202,10,5/14/2013,10/22/2015,625.6854,POINT (-93.0411111 35.46638889)
7257693,"Huckleberry Creek nr Augsburg, AR",2.13,650,,6.51,0.9,,,49.2,1.46,3,4.94,"Huckleberry Creek Nr Augsburg, AR",35.39305556,-93.2205556,500,14,11110202,60,8/6/2009,11/27/2022,,POINT (-93.2205556 35.39305556)
7260673,"West Fork Point Remove Creek near Hattieville, AR",222,751,,4.08,0.49,,,49.8,135.3,302,579,"West Fork Point Remove Creek Near Hattieville, AR",35.3247222,-92.8730556,280,14,11110203,60,10/1/2001,11/27/2022,,POINT (-92.8730556 35.3247222)
7258500,"Petit Jean River near Booneville, AR",241,747,,4.39,0.63,,,49.4,69.1,267,574.9,"Petit Jean River Near Booneville, AR",35.10694444,-93.9236111,423.67,0.2,11110204,60,11/1/1938,11/27/2022,623.9718,POINT (-93.9236111 35.10694444)
7260500,"Petit Jean River at Danville, AR",0.00656,343,,100,70,,,47.9,189.8,913,1921,"Petit Jean River At Danville, AR",35.0586111,-93.3955556,304.84,0.25,11110204,60,6/1/1916,11/27/2022,1975.217,POINT (-93.3955556 35.0586111)
7261000,"Cadron Creek near Guy, AR",0.000309,454,,12.5,10.8,,,,134,273,577.4,"Cadron Creek Near Guy, AR",35.2986111,-92.4038889,371.68,0.17,11110205,60,10/1/1954,11/27/2022,445.8141,POINT (-92.4038889 35.2986111)
7261090,"Cypress Creek nr Birdtown, AR",23.8,589,,5.82,0.86,,,50.9,19.2,37,60.9,"Cypress Creek Nr Birdtown, AR",35.2708333,-92.6302778,388.31,0.16,11110205,10,7/8/2009,2/3/2016,,POINT (-92.6302778 35.2708333)
7261500,"Fourche LaFave River Near Gravelly, AR",0.000811,420,,,,,,,128.1,594,1290,"Fourche Lafave River Near Gravelly, AR",34.8725,-93.6572222,411.15,0.25,11110206,60,3/1/1939,11/27/2022,1063.361,POINT (-93.6572222 34.8725)
7263000,"South Fourche LaFave River near Hollis, AR",,,,,,,,,129.3,311,589.8,,,,,,,,,,,
7263012,"Fourche LaFave River near Aplin, AR",955,833,,4.39,0.34,,,54,516.7,1426,2433,"Fourche Lafave River Near Aplin, AR",34.95666667,-92.985,269.1,0.19,11110206,60,10/1/2002,11/27/2022,2475.1,POINT (-92.985 34.95666667)
7263295,"Maumelle River at Williams Junction, AR",46,804,,4.52,0.32,,,54.8,33.5,70,157.4,"Maumelle River At Williams Junction, AR",34.8761111,-92.7744444,389.51,0.25,11110207,60,8/10/1989,11/27/2022,119.0277,POINT (-92.7744444 34.8761111)
7263296,"Maumelle River near Wye, AR",,,,,,,,,46.9,132,249.1,"Maumelle River Near Wye, AR",34.87888889,-92.6855556,286.13,0.25,11110207,10,9/30/2007,11/27/2022,185.517,POINT (-92.6855556 34.87888889)
7263300,"Maumelle River at Maumelle Dam at Natural Steps,AR",7.72E-05,297,,,,,,,0,142,393,"Maumelle River At Maumelle Dam At Natural, Steps,Ar",34.86305556,-92.4852778,200,0.25,11110207,60,8/17/1989,11/27/2022,355.1589,POINT (-92.4852778 34.86305556)
7263555,"Fourche Creek at Univ. Avenue at Little Rock, AR",0.96,303,,92.2,48.3,,,52,112.1,194,371.3,"Fourche Creek At Univ. Avenue At Little Rock, AR",34.70694444,-92.3444444,,,11110207,60,9/8/2007,11/27/2022,,POINT (-92.3444444 34.70694444)
7263580,"Rock Creek at 36th Street at Little Rock, AR",19.5,479,,77,30.8,,,51.8,14,29,61.7,"Rock Creek At 36Th Street At Little Rock, AR",34.72416667,-92.3588889,,,11110207,60,10/1/1996,11/27/2022,49.878,POINT (-92.3588889 34.72416667)
7337000,"Red River at Index, AR",,,,,,,,,3387,13656,36350,"Red River At Index, AR",33.55194444,-94.0411111,246.55,0.17,11140106,10,10/1/1997,11/27/2022,,POINT (-94.0411111 33.55194444)
7340000,"Little River near Horatio, AR",0.000502,291,,7.69,1.69,,,,1462,4191,7644,"Little River Near Horatio, AR",33.91944444,-94.3866667,272.85,0.01,11140109,60,4/1/1931,11/27/2022,6942.81,POINT (-94.3866667 33.91944444)
7340300,"Cossatot River near Vandervoort, AR",0.000116,810,,100,12,,,,84.1,191,362,"Cossatot River Near Vandervoort, AR",34.38,-94.2363889,771.74,0.2,11140109,60,6/1/1967,11/27/2022,230.4347,POINT (-94.2363889 34.38)
7341000,"Saline River near Dierks, AR",120,789,,7.44,0.58,,,59,114.2,245,434.7,"Saline River Near Dierks, AR",34.0961111,-94.085,353,0.2,11140109,60,10/1/1938,11/27/2022,312.0642,POINT (-94.085 34.0961111)
7341200,"Saline River near Lockesburg, AR",253,626,,6.88,0.7,,,57.3,129.1,410,841.8,"Saline River Near Lockesburg, AR",33.9622222,-94.0616667,299.69,0.19,11140109,60,7/1/1963,11/27/2022,654.9975,POINT (-94.0616667 33.9622222)
7341500,"Red River at Fulton, AR",,,,,,,,,8101,17543,35490,"Red River At Fulton, AR",33.60734285,-93.8137942,224.94,0.01,11140201,60,10/1/1927,11/28/2022,,POINT (-93.8137942 33.60734285)
7344370,"Red River at Spring Bank, AR",0.0012,231,,25.8,0,,,,6285,22789,52640,"Red River At Spring Bank, AR",33.08944444,-93.8594444,160.44,0.5,11140201,60,10/1/1997,11/27/2022,,POINT (-93.8594444 33.08944444)
7344370,"Red River at Spring Bank, AR",0.0012,231,,25.8,0,,,,6285,22789,52640,"Red River At Spring Bank, AR",33.08944444,-93.8594444,160.44,0.5,11140201,60,10/1/1997,11/27/2022,,POINT (-93.8594444 33.08944444)
9402500,"COLORADO RIVER NEAR GRAND CANYON, AZ",,,,,,,,,10490,14357,28380,,,,,,,,,,,
9404115,"HAVASU CREEK ABOVE THE MOUTH, NEAR SUPAI, AZ",2551.59,6028.773,,,,,6,14.2,68.8,74,89.4,,,,,,,,,,,
9404200,COLORADO RVR ABV DIAMOND CREEK NR PEACH SPRINGS AZ,,,,,,,,,11670,13826,22060,,,,,,,,,,,
9404208,"DIAMOND CREEK NEAR PEACH SPRINGS, AZ",276.16,4924.705,,,,,40,12,2.65,5,11,,,,,,,,,,,
9404104,"CATARACT CREEK AT REDLANDS CROSSING NEAR VALLE, AZ",,,,,,,,,0,0,2.62,,,,,,,,,,,
9404110,"HAVASU CREEK AT SUPAI, AZ",,,,,,,,,59.6,66,79.9,,,,,,,,,,,
9404222,"SPENCER CREEK NEAR PEACH SPRINGS, AZ",257.16,4781.791,,,,,23,12.8,1.05,5,30.8,,,,,,,,,,,
9404343,"TRUXTON WASH NEAR VALENTINE, AZ",375.23,5112.139,,,,,8,14.9,0.03,1,9.18,,,,,,,,,,,
9413700,"VIRGIN RV ABV THE NARROWS NR LITTLEFIELD, AZ",,,,,,,,,47.3,136,599.8,,,,,,,,,,,
9413700,"VIRGIN RV ABV THE NARROWS NR LITTLEFIELD, AZ",4135.03,5304.585,,,,,25.22,14.5,47.3,136,599.8,,,,,,,,,,,
9413700,"VIRGIN RV ABV THE NARROWS NR LITTLEFIELD, AZ",4135.03,5304.585,,,,,25.22,14.5,47.3,136,599.8,,,,,,,,,,,
9415000,"VIRGIN RV AT LITTLEFIELD, AZ",4813.82,5161.515,,,,,26.74,14.3,100.9,240,781.6,,,,,,,,,,,
9415000,"VIRGIN RV AT LITTLEFIELD, AZ",4813.82,5161.515,,,,,26.74,14.3,100.9,240,781.6,,,,,,,,,,,
9384000,"LITTLE COLORADO R ABV LYMAN LAKE NR ST. JOHNS, AZ",,,,,,,,,3.12,20,69.1,,,,,,,,,,,
9385700,"LITTLE COLORADO RIVER BELOW SALADO SPRINGS, AZ",817.75,7641.722,,,,,10.29,17.6,2.99,5,6.81,,,,,,,,,,,
9386300,"LITTLE COLORADO RVR BLW ZION RES. NR ST JOHNS, AZ",,,,,,,,,0,2,16.3,,,,,,,,,,,
9394500,"LITTLE COLORADO RIVER AT WOODRUFF, AZ",0,5160.302,,,,,0,9.6,4.84,37,125.4,,,,,,,,,,,
9396100,"PUERCO RIVER NEAR CHAMBERS, AZ",2160.11,6998.836,,,,,8.19,13.6,9.15,12,16.9,,,,,,,,,,,
9397000,"LITTLE COLORADO RIVER AT HOLBROOK, AZ",,,,,,,,,10.3,88,265.1,,,,,,,,,,,
9397300,"LITTLE COLORADO RIVER NEAR JOSEPH CITY, AZ",,,,,,,,,38.4,53,83,,,,,,,,,,,
9399400,"JACKS CANYON CREEK NEAR WINSLOW, AZ",,,,,,,,,0,3,13.2,,,,,,,,,,,
9397500,"CHEVELON FORK BELOW WILDCAT CANYON, NR WINSLOW, AZ",271.68,7070.079,,,,,12,24.8,0,29,75.1,,,,,,,,,,,
9401265,"PASTURE CANYON SPRINGS NEAR TUBA CITY, AZ",,,,,,,,,0.238,0,0.347,,,,,,,,,,,
9427520,"COLORADO RIVER BELOW PARKER DAM, AZ-CA",,,,,,,,,7644,10854,28190,"Colorado River Below Parker Dam, Az-Ca",34.29557035,-114.140225,300.54,20,15030104,60,11/16/1934,11/28/2022,,POINT (-114.140225 34.29557035)
9427520,"COLORADO RIVER BELOW PARKER DAM, AZ-CA",0,0,-100000,50,14.9,,,0,7644,10854,28190,"Colorado River Below Parker Dam, Az-Ca",34.29557035,-114.140225,300.54,20,15030104,60,11/16/1934,11/28/2022,,POINT (-114.140225 34.29557035)
9428510,"POSTON WASTEWAY NEAR POSTON, AZ",68.03,412.927,,,,,2,5,90.7,136,224.6,,,,,,,,,,,
9429100,"COLORADO RIVER BELOW PALO VERDE DAM, AZ-CA",0,282,-100000,0,0,,,4.24,6035,7478,11830,"Colorado River Below Palo Verde Dam, Az-Ca",33.71946626,-114.4980105,260,4.3,15030104,60,3/24/1956,11/29/2022,,POINT (-114.4980105 33.71946626)
9429100,"COLORADO RIVER BELOW PALO VERDE DAM, AZ-CA",0,282,-100000,0,0,,,4.24,6035,7478,11830,"Colorado River Below Palo Verde Dam, Az-Ca",33.71946626,-114.4980105,260,4.3,15030104,60,3/24/1956,11/29/2022,,POINT (-114.4980105 33.71946626)
9429600,"COLORADO RIVER BELOW LAGUNA DAM, AZ-CA",,,,,,,,,336,1410,14120,"Colorado River Below Laguna Dam, Az-Ca",32.8122666,-114.5149494,120.81,20,15030107,60,12/16/1971,11/28/2022,,POINT (-114.5149494 32.8122666)
9429600,"COLORADO RIVER BELOW LAGUNA DAM, AZ-CA",,,,,,,,,336,1410,14120,"Colorado River Below Laguna Dam, Az-Ca",32.8122666,-114.5149494,120.81,20,15030107,60,12/16/1971,11/28/2022,,POINT (-114.5149494 32.8122666)
9521100,"COLORADO R BLW YUMA MAIN CANAL WW AT YUMA, AZ",,,,,,,,,707.7,2073,14590,"Colorado R Blw Yuma Main Canal Ww At Yuma, AZ",32.73171354,-114.6327306,101.99,20,15030107,60,10/1/1963,11/28/2022,,POINT (-114.6327306 32.73171354)
9521100,"COLORADO R BLW YUMA MAIN CANAL WW AT YUMA, AZ",,,,,,,,,707.7,2073,14590,"Colorado R Blw Yuma Main Canal Ww At Yuma, AZ",32.73171354,-114.6327306,101.99,20,15030107,60,10/1/1963,11/28/2022,,POINT (-114.6327306 32.73171354)
9522400,"MITTRY LAKE DIVERSION AT IMPERIAL DAM, AZ",0,181.365,,,,,0,3.7,8.41,12,15.9,,,,,,,,,,,
9524000,"YUMA MAIN CANAL AT SIPHON DROP P.P. NR YUMA, AZ",0,151,0,16.7,24.7,,,3.88,386.8,713,1005,"Yuma Main Canal At Siphon Drop P.P. Nr Yuma, AZ",32.7767123,-114.6355087,155,2.5,15030107,60,10/1/1938,11/29/2022,,POINT (-114.6355087 32.7767123)
9524000,"YUMA MAIN CANAL AT SIPHON DROP P.P. NR YUMA, AZ",,,,,,,,,386.8,713,1005,"Yuma Main Canal At Siphon Drop P.P. Nr Yuma, AZ",32.7767123,-114.6355087,155,2.5,15030107,60,10/1/1938,11/29/2022,,POINT (-114.6355087 32.7767123)
9525500,"YUMA MAIN CANAL BLW COLORADO R. SIPHON AT YUMA, AZ",18.7,137,-100000,14.3,4.3,,,3.86,462.6,508,547.1,,,,,,,,,,,
9530000,"RESERVATION MAIN DRAIN NO. 4 NEAR YUMA, AZ",0,132,-100000,36.8,3.9,,,3.84,52.1,65,85.6,"Reservation Main Drain No. 4 Near Yuma, AZ",32.73726888,-114.621897,127,2.5,15030107,60,10/1/1966,11/28/2022,,POINT (-114.621897 32.73726888)
9530000,"RESERVATION MAIN DRAIN NO. 4 NEAR YUMA, AZ",0,132,-100000,36.8,3.9,,,3.84,52.1,65,85.6,"Reservation Main Drain No. 4 Near Yuma, AZ",32.73726888,-114.621897,127,2.5,15030107,60,10/1/1966,11/28/2022,,POINT (-114.621897 32.73726888)
9424450,"BIG SANDY RIVER NEAR WIKIEUP, AZ",0,1431.66,,,,,0,7.5,3.38,85,582.4,,,,,,,,,,,
9424900,"SANTA MARIA RIVER NEAR BAGDAD, AZ",1.86,1859.088,,,,,41,10,0,46,232.3,,,,,,,,,,,
9426620,"BILL WILLIAMS RIVER NEAR PARKER, AZ",5158.75,3640.318,,,,,25.09,14.6,0,69,864.6,,,,,,,,,,,
9431500,"GILA RIVER NEAR REDROCK, NM",2830,6895,,,,,,19.1,73.3,236,635.6,"Gila River Near Redrock, NM",32.72694444,-108.6755556,4090,10,15040002,60,10/1/1930,11/27/2022,7318.102,POINT (-108.6755556 32.72694444)
9431500,"GILA RIVER NEAR REDROCK, NM",2830,6895,,,,,,19.1,73.3,236,635.6,"Gila River Near Redrock, NM",32.72694444,-108.6755556,4090,10,15040002,60,10/1/1930,11/27/2022,7318.102,POINT (-108.6755556 32.72694444)
9432000,"GILA RIVER BELOW BLUE CREEK, NEAR VIRDEN, NM",3200,6686,,,,,,18.6,70.4,233,720.3,"Gila River Below Blue Creek, Near Virden, NM",32.64818333,-108.8460889,3869,4.3,15040002,60,7/1/1927,11/27/2022,8282.21,POINT (-108.8460889 32.64818333)
9432000,"GILA RIVER BELOW BLUE CREEK, NEAR VIRDEN, NM",3200,6686,,,,,,18.6,70.4,233,720.3,"Gila River Below Blue Creek, Near Virden, NM",32.64818333,-108.8460889,3869,4.3,15040002,60,7/1/1927,11/27/2022,8282.21,POINT (-108.8460889 32.64818333)
9444200,"BLUE RIVER NEAR CLIFTON, AZ.",504.77,6851.903,,,,,57,23.1,8.53,55,154.8,,,,,,,,,,,
9447000,"EAGLE CREEK ABOVE PUMPING PLANT, NEAR MORENCI, AZ.",620.97,6008.169,,,,,42,20.4,18.6,71,560.3,,,,,,,,,,,
9447800,"BONITA CREEK NEAR MORENCI, AZ.",302.32,5246.522,,,,,37,17.4,1.53,9,83.4,,,,,,,,,,,
9479350,"GILA RIVER NEAR MARICOPA, AZ.",,,,,,,,,0,0,4.52,,,,,,,,,,,
9470700,"BANNING CREEK NEAR BISBEE, AZ",0,4893.438,,,,,25,17.2,0,1,2.15,,,,,,,,,,,
9470750,"RAMSEY CANYON NEAR SIERRA VISTA, AZ",0,5774.77,,,,,100,26.3,0.033,0,1.32,,,,,,,,,,,
9470800,"GARDEN CANYON NEAR FORT HUACHUCA, AZ",,,,,,,,,0.028,1,4.71,,,,,,,,,,,
9471310,"HUACHUCA CANYON NEAR FORT HUACHUCA, AZ",0,5675.197,,,,,80,24.8,0.01,0,0.781,,,,,,,,,,,
9471380,"UPPER BABOCOMARI RIVER NEAR HUACHUCA CITY, AZ",0.02,4562.238,,,,,2,15.7,0.578,3,8.94,,,,,,,,,,,
9471400,"BABOCOMARI RIVER NEAR TOMBSTONE, AZ.",302.94,5005.085,,,,,14,17.8,0.458,2,8.15,,,,,,,,,,,
9471550,"SAN PEDRO RIVER NEAR TOMBSTONE, AZ",1729.18,4897.277,,,,,9,17.7,5.16,41,141,,,,,,,,,,,
9472050,"SAN PEDRO R AT REDINGTON BRIDGE NR REDINGTON, AZ",0,2832.185,,,,,0,15.3,3.21,12,22.5,,,,,,,,,,,
9473000,"ARAVAIPA CREEK NEAR MAMMOTH, AZ.",539.1,4566.732,,,,,47,18.6,8.85,32,165.9,,,,,,,,,,,
9480500,"SANTA CRUZ RIVER NEAR NOGALES, AZ.",531.71,4891.142,,,,,11,19.8,0.385,22,121,,,,,,,,,,,
9481740,"SANTA CRUZ RIVER AT TUBAC, AZ.",2.19,3394.882,,,,,3,17.1,4.95,25,114.5,,,,,,,,,,,
9482000,"SANTA CRUZ RIVER AT CONTINENTAL, AZ",0,2826.378,,,,,0,14.7,0.206,17,162.4,,,,,,,,,,,
9482500,"SANTA CRUZ RIVER AT TUCSON, AZ",2191.88,4096.129,,,,,18,18.5,0.946,13,43.1,,,,,,,,,,,
9486055,"RILLITO CREEK AT LA CHOLLA BLVD NEAR TUCSON, AZ.",0,2256.037,,,,,0,10.9,0,13,54.1,,,,,,,,,,,
9486350,"CANADA DEL ORO BLW INA ROAD, NEAR TUCSON, AZ.",254.88,3893.799,,,,,25,18.8,0.035,2,7.77,,,,,,,,,,,
9484000,"SABINO CREEK NEAR TUCSON, AZ",35.22,6073.228,,,,,81,30.2,1.73,16,56.5,,,,,,,,,,,
9484550,"CIENEGA CREEK NEAR SONOITA, AZ.",192.63,4973.655,,,,,13,19.8,0.594,2,13.8,,,,,,,,,,,
9484580,"BARREL CANYON NEAR SONOITA, AZ",13.95,5005.741,,,,,33,23.6,0,0,0.58,,,,,,,,,,,
9484600,"PANTANO WASH NEAR VAIL, AZ.",455.82,4618.373,,,,,19,19.1,0.592,5,20.8,,,,,,,,,,,
9485000,"RINCON CREEK NEAR TUCSON, AZ.",0.39,3267.159,,,,,1,15.5,0.022,6,30,,,,,,,,,,,
9486500,"SANTA CRUZ RIVER AT CORTARO, AZ",3460.55,4084.347,,,,,20.79,18.5,34.9,81,255.2,,,,,,,,,,,
9487000,"BRAWLEY WASH NEAR THREE POINTS, AZ.",785.48,3621.818,,,,,15,17.5,0.225,4,18.8,,,,,,,,,,,
9486520,"SANTA CRUZ RIVER AT TRICO ROAD, NR MARANA, AZ.",0,1901.115,,,,,0,11.1,11.6,43,130.7,,,,,,,,,,,
9489000,"SANTA CRUZ RIVER NEAR LAVEEN, AZ.",8550.13,3017.589,,,,,12.66,14.5,0.418,13,188.2,,,,,,,,,,,
9486800,"ALTAR WASH NEAR THREE POINTS, AZ.",,,,,,,,,0.066,4,20,,,,,,,,,,,
9489500,"BLACK RVR BLW PUMPING PLANT, NR POINT OF PINES, AZ",555.98,8058.333,,,,,22,27.7,33.4,201,600.3,,,,,,,,,,,
9490500,"BLACK RIVER NEAR FORT APACHE, AZ.",1223.71,7222.277,,,,,21,25.5,49.9,351,1130,,,,,,,,,,,
9492400,"EAST FORK WHITE RIVER NEAR FORT APACHE, AZ.",21.72,7612.795,,,,,26,30,9.57,32,75.2,,,,,,,,,,,
9494000,"WHITE RIVER NEAR FORT APACHE, AZ.",628.49,7240.814,,,,,26,29.1,37.9,177,477,,,,,,,,,,,
9497800,"CIBECUE CREEK NEAR CHRYSOTILE, AZ",,,,,,,,,12.5,41,176.5,,,,,,,,,,,
9497980,"CHERRY CREEK NEAR GLOBE, AZ",199.8,5542.749,,,,,39,26.8,3.59,31,115.6,,,,,,,,,,,
9498400,"PINAL CREEK AT INSPIRATION DAM, NR GLOBE, AZ.",195.41,4171.424,,,,,48,21,1.09,9,84.9,,,,,,,,,,,
9498500,"SALT RIVER NEAR ROOSEVELT, AZ",4289.37,6182.559,,,,,32.63,24.5,167.4,834,3037,,,,,,,,,,,
9498501,"PINTO CREEK BLW HAUNTED CANYON NR MIAMI, AZ",,,,,,,,,0.178,5,23.7,,,,,,,,,,,
9498502,"PINTO CREEK NEAR MIAMI, AZ",,,,,,,,,0.336,11,53.7,,,,,,,,,,,
9498503,"SOUTH FORK PARKER CREEK NEAR ROOSEVELT, AZ",1.08,6647.146,,,,,71,33.5,0.004,0,1.43,,,,,,,,,,,
9496500,"CARRIZO CREEK NEAR SHOW LOW, AZ.",441.43,6328.51,,,,,37,22.2,3.61,41,171.5,,,,,,,,,,,
9499000,"TONTO CREEK ABOVE GUN CREEK, NEAR ROOSEVELT, AZ",672.23,5083.268,,,,,42,25.9,3.95,161,648.3,,,,,,,,,,,
9502000,"SALT RIVER BLW STEWART MOUNTAIN DAM, AZ.",6211.84,5545.08,,,,,37.39,24,159.8,868,4501,,,,,,,,,,,
9512162,"INDIAN BEND WASH AT CURRY ROAD, TEMPE, AZ.",0.21,1184.121,,,,,0,9.2,0.024,3,28.9,,,,,,,,,,,
9512280,"CAVE CREEK BLW COTTONWOOD CR NEAR CAVE CREEK, AZ.",,,,,,,,,0.022,6,50.9,,,,,,,,,,,
9502800,"WILLIAMSON VALLEY WASH NEAR PAULDEN, AZ",0,4466.864,,,,,0,11.9,0.243,13,72.5,,,,,,,,,,,
9502900,"DEL RIO SPRINGS NEAR CHINO VALLEY, AZ",39.87,4762.27,,,,,0,13,0.376,1,2.06,,,,,,,,,,,
9502960,"GRANITE CREEK AT PRESCOTT, AZ",30.22,5951.575,,,,,19,22.6,0.826,7,22.7,,,,,,,,,,,
9503000,"GRANITE CREEK NEAR PRESCOTT, AZ",0,5339.567,,,,,70,19.6,1.4,7,25.3,,,,,,,,,,,
9503300,"GRANITE CREEK BELOW WATSON LAKE NEAR PRESCOTT, AZ",,,,,,,,,0.113,4,23.3,,,,,,,,,,,
9503700,"VERDE RIVER NEAR PAULDEN, AZ",0,4124.803,,,,,0,14.6,19.2,41,215.5,,,,,,,,,,,
9504000,"VERDE RIVER NEAR CLARKDALE, AZ",3143.18,5601.302,,,,,10.38,17.5,69.1,156,632.5,,,,,,,,,,,
9504420,"OAK CREEK NEAR SEDONA, AZ",232.76,6726.772,,,,,17,27.1,31,78,227.6,,,,,,,,,,,
9504500,"OAK CREEK NEAR CORNVILLE, AZ",355.08,6107.841,,,,,24,24.8,25.5,85,252,,,,,,,,,,,
9505200,"WET BEAVER CREEK NEAR RIMROCK, AZ",,,,,,,,,6.87,30,89.3,,,,,,,,,,,
9505350,"DRY BEAVER CREEK NEAR RIMROCK, AZ",142.14,6191.043,,,,,15,25.1,0.351,40,146.1,,,,,,,,,,,
9505800,"WEST CLEAR CREEK NEAR CAMP VERDE, AZ",241.42,6635.171,,,,,13,26.1,15.4,56,184.3,,,,,,,,,,,
9507480,"FOSSIL CREEK NEAR STRAWBERRY, AZ",68.42,5887.959,,,,,28,26.4,40.6,50,75.1,,,,,,,,,,,
9507980,"EAST VERDE RIVER NEAR CHILDS, AZ",326.37,5245.735,,,,,34,26.5,2.07,61,288.4,,,,,,,,,,,
9508300,"WET BOTTOM CREEK NEAR CHILDS, AZ",,,,,,,,,0.124,14,52.3,,,,,,,,,,,
9508500,"VERDE RVR BLW TANGLE CREEK, ABV HORSESHOE DAM, AZ",,,,,,,,,191.1,412,855.9,,,,,,,,,,,
9510000,"VERDE RIVER BELOW BARTLETT DAM, AZ",0,1590.518,,,,,100,15.2,156.5,578,2478,,,,,,,,,,,
9510200,"SYCAMORE CREEK NEAR FORT MCDOWELL, AZ",163.99,3802.723,,,,,52,24.3,0.057,26,154.2,,,,,,,,,,,
9511300,"VERDE RIVER NEAR SCOTTSDALE, AZ",0,1445.899,,,,,86,11.4,134.2,564,2451,,,,,,,,,,,
9514100,"GILA RIVER AT ESTRELLA PARKWAY, NEAR GOODYEAR, AZ",3.26,1094.652,,,,,25,8,0.688,411,8388,,,,,,,,,,,
9519000,"ENTERPRISE CANAL AT GILLESPIE DAM, AZ",14.51,1071.194,,,,,12,7.8,3.08,11,14.3,,,,,,,,,,,
9512450,"AGUA FRIA RIVER NEAR HUMBOLDT, AZ",174.77,5425.098,,,,,21,18.8,1.84,5,14.7,,,,,,,,,,,
9512500,"AGUA FRIA RIVER NEAR MAYER, AZ",585.17,4937.566,,,,,22,19.2,1.65,24,143.4,,,,,,,,,,,
9512800,"AGUA FRIA RIVER NEAR ROCK SPRINGS, AZ",0,1803.871,,,,,0,13.2,2.11,69,498,,,,,,,,,,,
9513780,"NEW RIVER NEAR ROCK SPRINGS, AZ.",68.39,3966.765,,,,,51,20.8,0.001,11,76.9,,,,,,,,,,,
9513860,"SKUNK CREEK NEAR PHOENIX, AZ",65.02,2240.42,,,,,17,13.9,0,1,8.64,,,,,,,,,,,
9516500,"HASSAYAMPA RIVER NEAR MORRISTOWN, AZ.",,,,,,,,,0,22,220.2,,,,,,,,,,,
9517490,CENTENNIAL WASH AT SOUTHERN PACIFIC RAILROAD BRDG,0,852.1,,,,,0,7.4,0,2,8.85,,,,,,,,,,,
9519800,"GILA RIVER BELOW PAINTED ROCK DAM, AZ",0,627.986,,,,,67,5.7,0,394,7027,,,,,,,,,,,
9520280,"GILA RIVER NEAR DATELAND, AZ",0,372.539,,,,,0,4.2,0,57,843.2,,,,,,,,,,,
9520500,"GILA RIVER NEAR DOME, AZ",57169.23,3801.694,,,,,21.73,15.5,1.07,306,6536,,,,,,,,,,,
9537200,"LESLIE CREEK NEAR MCNEAL, AZ.",78.84,5331.627,,,,,25,18.2,0,1,3.57,,,,,,,,,,,
9537500,"WHITEWATER DRAW NEAR DOUGLAS, AZ.",1230.9,4744.849,,,,,13,15.8,0.151,5,20.3,,,,,,,,,,,
9423350,CARUTHERS C NR IVANPAH CA,0.9,6404,23.1,0,0,,,11.6,0,0,0.356,"Caruthers C Nr Ivanpah, CA",35.24500556,-115.2989889,5669,1.6,15030102,60,10/1/1963,11/29/2022,2.2428,POINT (-115.2989889 35.24500556)
10336610,"UPPER TRUCKEE RV AT SOUTH LAKE TAHOE, CA",53.8,7609,39.1,10,2.4,,,45.8,29.6,97,258.1,"Upper Truckee Rv At South Lake Tahoe, CA",38.9224078,-119.9915706,6229.04,0.01,16050101,10,3/10/1981,11/30/2022,139.6478,POINT (-119.9915706 38.9224078)
10336610,"UPPER TRUCKEE RV AT SOUTH LAKE TAHOE, CA",53.8,7609,39.1,10,2.4,,,45.8,29.6,97,258.1,"Upper Truckee Rv At South Lake Tahoe, CA",38.9224078,-119.9915706,6229.04,0.01,16050101,10,3/10/1981,11/30/2022,139.6478,POINT (-119.9915706 38.9224078)
10336645,GENERAL C NR MEEKS BAY CA,7.5,7184,50.3,0.6,0.1,,,46.8,4.94,17,42,"General C Nr Meeks Bay, CA",39.05185197,-120.1185209,,,16050101,10,10/22/1980,11/30/2022,19.5984,POINT (-120.1185209 39.05185197)
10336645,GENERAL C NR MEEKS BAY CA,7.5,7184,50.3,0.6,0.1,,,46.8,4.94,17,42,"General C Nr Meeks Bay, CA",39.05185197,-120.1185209,,,16050101,10,10/22/1980,11/30/2022,19.5984,POINT (-120.1185209 39.05185197)
10336660,BLACKWOOD C NR TAHOE CITY CA,11.9,7241,53.6,2.7,0.2,,,57.4,8.96,35,82.3,"Blackwood C Nr Tahoe City, CA",39.10740708,-120.1621352,6234.59,20,16050101,10,12/6/1980,11/30/2022,29.7963,POINT (-120.1621352 39.10740708)
10336660,BLACKWOOD C NR TAHOE CITY CA,11.9,7241,53.6,2.7,0.2,,,57.4,8.96,35,82.3,"Blackwood C Nr Tahoe City, CA",39.10740708,-120.1621352,6234.59,20,16050101,10,12/6/1980,11/30/2022,29.7963,POINT (-120.1621352 39.10740708)
10336676,WARD C AT HWY 89 NR TAHOE PINES CA,9.5,7281,56.7,1.7,0.3,,,59.7,5.5,26,67,"Ward C At Hwy 89 Nr Tahoe Pines, CA",39.1321292,-120.1576913,,,16050101,10,10/22/1980,11/30/2022,24.7167,POINT (-120.1576913 39.1321292)
10336676,WARD C AT HWY 89 NR TAHOE PINES CA,9.5,7281,56.7,1.7,0.3,,,59.7,5.5,26,67,"Ward C At Hwy 89 Nr Tahoe Pines, CA",39.1321292,-120.1576913,,,16050101,10,10/22/1980,11/30/2022,24.7167,POINT (-120.1576913 39.1321292)
10336780,"TROUT CK NR TAHOE VALLEY, CA",36.7,7932,43.1,3.2,0.9,,,34.9,9.49,36,114.5,"Trout Ck Nr Tahoe Valley, CA",38.9199077,-119.9724036,6241.57,5,16050101,10,2/19/1981,11/30/2022,95.1021,POINT (-119.9724036 38.9199077)
10336780,"TROUT CK NR TAHOE VALLEY, CA",36.7,7932,43.1,3.2,0.9,,,34.9,9.49,36,114.5,"Trout Ck Nr Tahoe Valley, CA",38.9199077,-119.9724036,6241.57,5,16050101,10,2/19/1981,11/30/2022,95.1021,POINT (-119.9724036 38.9199077)
10337500,TRUCKEE R A TAHOE CITY CA,505.6,6967,27,44.6,1.5,,,34.8,0.085,228,1170,"Truckee R A Tahoe City, CA",39.16629577,-120.1443586,6216.59,0.05,16050102,10,6/5/1993,9/30/2014,1312.217,POINT (-120.1443586 39.16629577)
10337500,TRUCKEE R A TAHOE CITY CA,,,,,,,,,0.085,228,1170,"Truckee R A Tahoe City, CA",39.16629577,-120.1443586,6216.59,0.05,16050102,10,6/5/1993,9/30/2014,1312.217,POINT (-120.1443586 39.16629577)
10338000,TRUCKEE R NR TRUCKEE CA,553.1,6969,28.8,40.9,1.5,,,35.9,30.9,280,825.7,"Truckee R Nr Truckee, CA",39.2962952,-120.2054752,5860,20,16050102,10,7/9/1977,9/30/1995,1432.165,POINT (-120.2054752 39.2962952)
10338000,TRUCKEE R NR TRUCKEE CA,,,,,,,,,30.9,280,825.7,"Truckee R Nr Truckee, CA",39.2962952,-120.2054752,5860,20,16050102,10,7/9/1977,9/30/1995,1432.165,POINT (-120.2054752 39.2962952)
10338500,DONNER C A DONNER LK NR TRUCKEE CA,14.6,6750,38.3,17.8,4,,,46.7,3.63,37,96.7,"Donner C A Donner Lk Nr Truckee, CA",39.3235172,-120.2343654,5924.4,0.01,16050102,60,1/1/1929,11/29/2022,37.9008,POINT (-120.2343654 39.3235172)
10338500,DONNER C A DONNER LK NR TRUCKEE CA,14.6,6750,38.3,17.8,4,,,46.7,3.63,37,96.7,"Donner C A Donner Lk Nr Truckee, CA",39.3235172,-120.2343654,5924.4,0.01,16050102,60,1/1/1929,11/29/2022,37.9008,POINT (-120.2343654 39.3235172)
10338700,DONNER C AT HWY 89 NR TRUCKEE CA,29.3,6813,43.3,11.9,3.4,,,46.9,23.5,75,181.4,"Donner C At Hwy 89 Nr Truckee, CA",39.32101739,-120.2079759,5870,20,16050102,10,8/13/1993,8/9/1995,75.9195,POINT (-120.2079759 39.32101739)
10338700,DONNER C AT HWY 89 NR TRUCKEE CA,29.3,6813,43.3,11.9,3.4,,,46.9,23.5,75,181.4,"Donner C At Hwy 89 Nr Truckee, CA",39.32101739,-120.2079759,5870,20,16050102,10,8/13/1993,8/9/1995,75.9195,POINT (-120.2079759 39.32101739)
10343000,INDEPENDENCE C NR TRUCKEE CA,8.3,7562,35.8,12.6,0,,,48.8,5.51,22,51.8,"Independence C Nr Truckee, CA",39.4565717,-120.2871477,6940,20,16050102,60,10/21/1909,11/29/2022,21.4002,POINT (-120.2871477 39.4565717)
10343000,INDEPENDENCE C NR TRUCKEE CA,8.3,7562,35.8,12.6,0,,,48.8,5.51,22,51.8,"Independence C Nr Truckee, CA",39.4565717,-120.2871477,6940,20,16050102,60,10/21/1909,11/29/2022,21.4002,POINT (-120.2871477 39.4565717)
10343500,SAGEHEN C NR TRUCKEE CA,10.6,7095,57.6,0,0.1,,,38,2.65,12,32.7,"Sagehen C Nr Truckee, CA",39.43157246,-120.2379793,6320,20,16050102,10,10/1/1969,11/30/2022,27.6027,POINT (-120.2379793 39.43157246)
10343500,SAGEHEN C NR TRUCKEE CA,10.6,7095,57.6,0,0.1,,,38,2.65,12,32.7,"Sagehen C Nr Truckee, CA",39.43157246,-120.2379793,6320,20,16050102,10,10/1/1969,11/30/2022,27.6027,POINT (-120.2379793 39.43157246)
10344400,LITTLE TRUCKEE R AB BOCA RES NR TRUCKEE CA,,,,,,,,,52.6,160,485.4,"Little Truckee R Ab Boca Res Nr Truckee, CA",39.43574106,-120.084366,5618.67,20,16050102,60,9/1/1939,11/29/2022,377.4933,POINT (-120.084366 39.43574106)
10344400,LITTLE TRUCKEE R AB BOCA RES NR TRUCKEE CA,145.8,6824,39.7,5.1,0.2,,,40,52.6,160,485.4,"Little Truckee R Ab Boca Res Nr Truckee, CA",39.43574106,-120.084366,5618.67,20,16050102,60,9/1/1939,11/29/2022,377.4933,POINT (-120.084366 39.43574106)
10344500,LITTLE TRUCKEE R BL BOCA DAM NR TRUCKEE CA,172.2,6693,37.7,5.1,0.3,,,38.2,43.3,173,520.6,"Little Truckee R Bl Boca Dam Nr Truckee, CA",39.38685177,-120.0954757,5500,20,16050102,10,4/19/1980,9/30/1998,445.842,POINT (-120.0954757 39.38685177)
10344500,LITTLE TRUCKEE R BL BOCA DAM NR TRUCKEE CA,172.2,6693,37.7,5.1,0.3,,,38.2,43.3,173,520.6,"Little Truckee R Bl Boca Dam Nr Truckee, CA",39.38685177,-120.0954757,5500,20,16050102,10,4/19/1980,9/30/1998,445.842,POINT (-120.0954757 39.38685177)
10344505,TRUCKEE R A BOCA BRIDGE NR TRUCKEE CA,872.9,6849,32.5,28.7,1.5,,,36.8,183.4,613,1704,"Truckee R A Boca Bridge Nr Truckee, CA",39.38518517,-120.0876977,5484,20,16050102,60,8/28/2002,11/29/2022,,POINT (-120.0876977 39.38518517)
10344505,TRUCKEE R A BOCA BRIDGE NR TRUCKEE CA,,,,,,,,,183.4,613,1704,"Truckee R A Boca Bridge Nr Truckee, CA",39.38518517,-120.0876977,5484,20,16050102,60,8/28/2002,11/29/2022,,POINT (-120.0876977 39.38518517)
10346000,TRUCKEE R A FARAD CA,0.1,5740,12.2,1.5,0.7,,,26.1,193.8,769,2567,"Truckee R A Farad, CA",39.42796385,-120.0340873,5153.21,0.01,16050102,10,7/17/1993,11/29/2022,2415.852,POINT (-120.0340873 39.42796385)
10346000,TRUCKEE R A FARAD CA,0.1,5740,12.2,1.5,0.7,,,26.1,193.8,769,2567,"Truckee R A Farad, CA",39.42796385,-120.0340873,5153.21,0.01,16050102,10,7/17/1993,11/29/2022,2415.852,POINT (-120.0340873 39.42796385)
10308200,E FK CARSON RV BLW MARKLEEVILLE CK NR MARKLEEVILLE,276.8,7913,31.5,0.8,0.2,,,38.1,85.4,349,976,"E Fk Carson Rv Blw Markleeville Ck Nr, Markleeville",38.7146274,-119.7648985,5400,20,16050201,60,9/1/1960,11/29/2022,716.4228,POINT (-119.7648985 38.7146274)
10308200,E FK CARSON RV BLW MARKLEEVILLE CK NR MARKLEEVILLE,276.8,7913,31.5,0.8,0.2,,,38.1,85.4,349,976,"E Fk Carson Rv Blw Markleeville Ck Nr, Markleeville",38.7146274,-119.7648985,5400,20,16050201,60,9/1/1960,11/29/2022,716.4228,POINT (-119.7648985 38.7146274)
10308784,LEVIATHAN MINE ADIT DRAIN NR MARKLEEVILLE CA,0.1,7244,4.86,3.6,0.4,,,24.4,0.02,0,0.06,"Leviathan Mine Adit Drain Nr Markleeville, CA",38.70407294,-119.6587837,7100,40,16050201,60,11/2/1998,11/29/2022,,POINT (-119.6587837 38.70407294)
10308789,LEVIATHAN C AB ASPEN C NR MARKLEEVILLE CA,7.3,7774,31.8,0.7,0.2,,,25.7,0.092,1,5.79,"Leviathan C Ab Aspen C Nr Markleeville, CA",38.7168505,-119.6601726,6700,40,16050201,60,10/24/1998,11/29/2022,18.8181,POINT (-119.6601726 38.7168505)
10310000,"W FK CARSON RV AT WOODFORDS, CA",65.5,8068,30.3,1.9,0.4,,,43,26.1,101,263.3,"W Fk Carson Rv At Woodfords, CA",38.76962765,-119.833789,5754.5,0.1,16050201,60,10/1/1900,11/29/2022,169.3294,POINT (-119.833789 38.76962765)
10310000,"W FK CARSON RV AT WOODFORDS, CA",65.5,8068,30.3,1.9,0.4,,,43,26.1,101,263.3,"W Fk Carson Rv At Woodfords, CA",38.76962765,-119.833789,5754.5,0.1,16050201,60,10/1/1900,11/29/2022,169.3294,POINT (-119.833789 38.76962765)
10289500,"GREEN CK NR BRIDGEPORT, CA",19.6,9561,9.61,2.2,0,,,31.6,12.6,28,50.8,"Green Ck Nr Bridgeport, CA",38.17380969,-119.2337656,6880,20,16050301,60,10/1/1953,11/29/2022,50.7591,POINT (-119.2337656 38.17380969)
10289500,"GREEN CK NR BRIDGEPORT, CA",19.6,9561,9.61,2.2,0,,,31.6,12.6,28,50.8,"Green Ck Nr Bridgeport, CA",38.17380969,-119.2337656,6880,20,16050301,60,10/1/1953,11/29/2022,50.7591,POINT (-119.2337656 38.17380969)
10290500,"ROBINSON CK AT TWIN LKS OUTLET NR BRIDGEPORT, CA",,,,,,,,,25.4,64,106.4,"Robinson Ck At Twin Lks Outlet Nr Bridgeport, CA",38.17214225,-119.3246032,7050,10,16050301,60,10/1/1953,11/29/2022,101.5452,POINT (-119.3246032 38.17214225)
10290500,"ROBINSON CK AT TWIN LKS OUTLET NR BRIDGEPORT, CA",39.2,9352,10.9,4.4,0.1,,,37.7,25.4,64,106.4,"Robinson Ck At Twin Lks Outlet Nr Bridgeport, CA",38.17214225,-119.3246032,7050,10,16050301,60,10/1/1953,11/29/2022,101.5452,POINT (-119.3246032 38.17214225)
10291500,"BUCKEYE CK NR BRIDGEPORT, CA",,,,,,,,,18.5,58,104.3,"Buckeye Ck Nr Bridgeport, CA",38.23880787,-119.3259923,6900,10,16050301,60,4/1/1911,11/29/2022,113.6448,POINT (-119.3259923 38.23880787)
10291500,"BUCKEYE CK NR BRIDGEPORT, CA",43.8,9193,19,0,0,,,37.5,18.5,58,104.3,"Buckeye Ck Nr Bridgeport, CA",38.23880787,-119.3259923,6900,10,16050301,60,4/1/1911,11/29/2022,113.6448,POINT (-119.3259923 38.23880787)
10293000,"E WALKER RV NR BRIDGEPORT, CA",360.4,8249,13.3,2.4,0.2,,,23.5,31.9,150,442.8,"E Walker Rv Nr Bridgeport, CA",38.3276958,-119.2148759,6400,20,16050301,60,10/1/1921,11/29/2022,933.3531,POINT (-119.2148759 38.3276958)
10293000,"E WALKER RV NR BRIDGEPORT, CA",360.4,8249,13.3,2.4,0.2,,,23.5,31.9,150,442.8,"E Walker Rv Nr Bridgeport, CA",38.3276958,-119.2148759,6400,20,16050301,60,10/1/1921,11/29/2022,933.3531,POINT (-119.2148759 38.3276958)
10296000,"W WALKER RV BLW L WALKER RV NR COLEVILLE, CA",,,,,,,,,63.1,269,703.7,"W Walker Rv Blw L Walker Rv Nr Coleville, CA",38.3796366,-119.4501649,6591.39,1,16050302,60,4/1/1938,11/29/2022,467.4168,POINT (-119.4501649 38.3796366)
10296000,"W WALKER RV BLW L WALKER RV NR COLEVILLE, CA",180.5,8850,15.9,1.2,0.2,,,39.9,63.1,269,703.7,"W Walker Rv Blw L Walker Rv Nr Coleville, CA",38.3796366,-119.4501649,6591.39,1,16050302,60,4/1/1938,11/29/2022,467.4168,POINT (-119.4501649 38.3796366)
10296500,"W WALKER RV NR COLEVILLE, CA",244.1,8610,15.3,1.2,0.3,,,35.3,70.7,278,678.4,"W Walker Rv Nr Coleville, CA",38.51324495,-119.4498872,5520,20,16050302,60,10/1/1902,11/29/2022,632.1213,POINT (-119.4498872 38.51324495)
10296500,"W WALKER RV NR COLEVILLE, CA",244.1,8610,15.3,1.2,0.3,,,35.3,70.7,278,678.4,"W Walker Rv Nr Coleville, CA",38.51324495,-119.4498872,5520,20,16050302,60,10/1/1902,11/29/2022,632.1213,POINT (-119.4498872 38.51324495)
11532500,SMITH R NR CRESCENT CITY CA,,,,,,,,,1661,3673,6195,"Smith R Nr Crescent City, CA",41.7915026,-124.0761887,79.26,0.05,18010101,10,10/1/1965,9/29/1981,1577.962,POINT (-124.0761887 41.7915026)
11480390,MAD R AB RUTH RES NR FOREST GLEN CA,93.7,3705,56.3,2.7,0.1,,,65.2,54.7,220,471.3,"Mad R Ab Ruth Res Nr Forest Glen, CA",40.28431329,-123.3353034,,,18010102,60,6/20/1980,11/29/2022,242.5977,POINT (-123.3353034 40.28431329)
11481000,MAD R NR ARCATA CA,485.5,2623,55.1,3,0.2,,,71.5,409.5,1307,2832,"Mad R Nr Arcata, CA",40.9098497,-124.0606183,12.79,0.01,18010102,10,10/12/1961,1/18/1979,1257.414,POINT (-124.0606183 40.9098497)
11481200,LITTLE R NR TRINIDAD CA,40.7,1096,68.4,0.5,0,,,67.6,41.9,132,269,"Little R Nr Trinidad, CA",41.0098479,-124.0814555,17.62,0.01,18010102,60,10/1/1955,11/29/2022,105.4035,POINT (-124.0814555 41.0098479)
11481500,REDWOOD C NR BLUE LAKE CA,67.6,2935,51.3,0.9,0,,,91.6,70.3,210,438.5,"Redwood C Nr Blue Lake, CA",40.90596479,-123.815335,867.26,0.16,18010102,10,10/1/1973,10/14/1980,175.1499,POINT (-123.815335 40.90596479)
11482500,REDWOOD C A ORICK CA,277.3,1831,61.3,1.5,0.1,,,83.4,296.2,944,1836,"Redwood C A Orick, CA",41.2992896,-124.0511825,8.97,0.16,18010102,10,10/1/1965,9/4/1979,718.0398,POINT (-124.0511825 41.2992896)
11473900,MF EEL R NR DOS RIOS CA,745.2,3685,35.3,3.2,0.1,,,56.4,360.8,1451,3623,"Mf Eel R Nr Dos Rios, CA",39.70626687,-123.3252913,901.58,0.01,18010104,10,10/1/1966,10/4/1983,1925.013,POINT (-123.3252913 39.70626687)
11475000,EEL R A FORT SEWARD CA,2107.1,3025,37.7,3.4,0.1,,,57.9,925.2,4364,11180,"Eel R A Fort Seward, CA",40.2182,-123.63253,217.26,0.01,18010105,10,11/10/1960,5/24/1979,5456.924,POINT (-123.63253 40.2182)
11477000,EEL R A SCOTIA CA,3113.2,2577,43.1,3.7,0.2,,,61.5,1619,7410,18850,"Eel R A Scotia, CA",40.49152384,-124.0997699,35.5,0.01,18010105,10,2/1/1962,6/30/1982,8062.434,POINT (-124.0997699 40.49152384)
11478500,VAN DUZEN R NR BRIDGEVILLE CA,,,,,,,,,230.5,809,1670,"Van Duzen R Nr Bridgeville, CA",40.48041636,-123.890876,358.18,0.01,18010105,10,12/3/1960,5/16/1979,572.3766,POINT (-123.890876 40.48041636)
11475560,ELDER C NR BRANSCOMB CA,6.5,2792,62.9,0.2,0,,,99.9,5.58,24,50.3,"Elder C Nr Branscomb, CA",39.7295997,-123.6439073,1391.08,0.01,18010106,10,10/1/1967,11/30/2022,16.794,POINT (-123.6439073 39.7295997)
11475800,SF EEL R A LEGGETT CA,247.9,2053,50.8,5.1,0.2,,,81.2,163.1,732,2055,"Sf Eel R A Leggett, CA",39.8745957,-123.7205775,687.59,0.16,18010106,10,10/1/1965,6/26/1979,642.1077,POINT (-123.7205775 39.8745957)
11476500,SF EEL R NR MIRANDA CA,536.8,1726,52.4,5.1,0.3,,,75.9,343.7,1732,4673,"Sf Eel R Nr Miranda, CA",40.18181004,-123.7761426,217.57,0.01,18010106,10,11/4/1960,9/29/1983,1390.243,POINT (-123.7761426 40.18181004)
11476600,BULL C NR WEOTT CA,,,,,,,,,21.9,111,319,"Bull C Nr Weott, CA",40.351528,-124.0050423,269.36,0.01,18010106,10,10/2/1975,8/29/1979,71.8452,POINT (-124.0050423 40.351528)
11468900,MATTOLE R NR ETTERSBURG CA,70.9,1458,62,3.4,0.1,,,75.2,90.3,343,509.9,"Mattole R Nr Ettersburg, CA",40.139309,-123.991423,578.93,0.01,18010107,10,6/22/2001,11/30/2022,183.6774,POINT (-123.991423 40.139309)
11469000,MATTOLE R NR PETROLIA CA,245.5,1354,56.2,2.7,0.1,,,75.9,241.2,1186,2747,"Mattole R Nr Petrolia, CA",40.31319125,-124.283381,49.41,1,18010107,10,10/5/2000,8/22/2003,622.863,POINT (-124.283381 40.31319125)
11468000,NAVARRO R NR NAVARRO CA,303.3,1126,55,4.6,0.2,,,46.7,55.1,473,1495,"Navarro R Nr Navarro, CA",39.17045608,-123.668069,4.79,0.01,18010108,10,10/1/1965,5/5/1999,785.8926,POINT (-123.668069 39.17045608)
11468500,NOYO R NR FORT BRAGG CA,105.6,918,71,5.6,0.1,,,50.2,33.2,192,502.1,"Noyo R Nr Fort Bragg, CA",39.42822378,-123.7377917,11.73,0.01,18010108,10,12/8/1965,2/14/1979,273.5145,POINT (-123.7377917 39.42822378)
11467510,SF GUALALA R NR THE SEA RANCH CA,,,,,,,,,37.1,322,633,"Sf Gualala R Nr The Sea Ranch, CA",38.70907868,-123.4266753,40,0.01,18010109,60,6/1/1991,11/29/2022,418.3695,POINT (-123.4266753 38.70907868)
11467553,NF GUALALA R AB SF GUALALA R NR GUALALA CA,47,1029,62.2,3.4,0.1,,,53.2,16.1,121,225,"Nf Gualala R Ab Sf Gualala R Nr Gualala, CA",38.7899103,-123.5094535,20,20,18010109,10,2/20/2001,10/2/2001,,POINT (-123.5094535 38.7899103)
11461000,RUSSIAN R NR UKIAH CA,100.5,1468,30,7.9,1,,,46.6,19.7,164,482,"Russian R Nr Ukiah, CA",39.1954471,-123.1950048,602.25,0.16,18010110,10,11/9/1964,9/28/1967,259.6455,POINT (-123.1950048 39.1954471)
11461500,EF RUSSIAN R NR CALPELLA CA,92.2,1630,19.2,4.6,0.3,,,44.9,61.9,277,611.6,"Ef Russian R Nr Calpella, CA",39.24655605,-123.1302806,787.87,0.01,18010110,10,10/31/2019,11/30/2022,238.6782,POINT (-123.1302806 39.24655605)
11462080,RUSSIAN R NR TALMAGE CA,286.5,1537,25.5,9,1.5,,,45.6,151.9,387,687.3,"Russian R Nr Talmage, CA",39.1129496,-123.1830602,560,20,18010110,60,8/6/2009,11/29/2022,,POINT (-123.1830602 39.1129496)
11462500,RUSSIAN R NR HOPLAND CA,362.5,1526,25.2,8.4,1.3,,,45.5,144.6,630,1705,"Russian R Nr Hopland, CA",39.02656314,-123.1305588,497.61,0.01,18010110,10,9/1/1965,11/30/2022,938.709,POINT (-123.1305588 39.02656314)
11463000,RUSSIAN R NR CLOVERDALE CA,502.9,1530,24.7,7.2,1,,,45.5,184.9,870,2372,"Russian R Nr Cloverdale, CA",38.8793475,-123.0536124,350,20,18010110,10,11/17/1964,11/2/2022,1302.663,POINT (-123.0536124 38.8793475)
11463170,BIG SULPHUR C A G RESORT NR CLOVERDALE CA,13.1,2836,41,1.3,0.1,,,57.9,4.88,43,103.6,"Big Sulphur C A G Resort Nr Cloverdale, CA",38.79768326,-122.8024929,,,18010110,60,10/1/1980,11/29/2022,33.8634,POINT (-122.8024929 38.79768326)
11463200,BIG SULPHUR C NR CLOVERDALE CA,85.3,2095,30.1,2.6,0.2,,,51,31.2,154,334,"Big Sulphur C Nr Cloverdale, CA",38.8260167,-122.9969442,,,18010110,10,10/14/1970,10/5/1972,220.8726,POINT (-122.9969442 38.8260167)
11463682,RUSSIAN R A JIMTOWN CA,685.6,1488,25.3,7.3,1.2,,,46,227.3,938,1777,"Russian R A Jimtown, CA",38.65824247,-122.8294376,143.69,0.2,18010110,10,7/22/2009,11/30/2022,,POINT (-122.8294376 38.65824247)
11463900,MAACAMA C NR KELLOGG CA,44,1337,29.8,2.2,0.1,,,45,7.96,68,151.8,"Maacama C Nr Kellogg, CA",38.6410198,-122.7638792,200,20,18010110,60,1/1/1961,11/29/2022,114.1371,POINT (-122.7638792 38.6410198)
11464000,RUSSIAN R NR HEALDSBURG CA,794,1414,25.9,6.9,1.1,,,45.5,244.9,1315,3710,"Russian R Nr Healdsburg, CA",38.61324316,-122.8363818,77.01,0.01,18010110,10,11/6/1965,9/30/2002,2056.271,POINT (-122.8363818 38.61324316)
11465200,DRY C NR GEYSERVILLE CA,162.8,1104,37.8,4.5,0.2,,,52.9,82.2,277,685.5,"Dry C Nr Geyserville, CA",38.698521,-122.9580539,160.49,0.16,18010110,10,11/17/1964,9/30/1984,421.5618,POINT (-122.9580539 38.698521)
11465240,DRY C BLW LAMBERT BR NR GEYSERVILLE CA,175.4,1054,37.5,4.5,0.2,,,52.3,111.7,323,534.9,"Dry C Blw Lambert Br Nr Geyserville, CA",38.65324355,-122.9272191,111.95,0.16,18010110,10,5/22/2012,11/1/2022,,POINT (-122.9272191 38.65324355)
11465350,DRY C NR MOUTH NR HEALDSBURG CA,216.2,966,39.2,5.2,0.6,,,51.7,116.4,329,702.7,"Dry C Nr Mouth Nr Healdsburg, CA",38.58741046,-122.8622159,55.65,0.16,18010110,60,10/1/1981,11/29/2022,559.8117,POINT (-122.8622159 38.58741046)
11465680,LAGUNA DE SANTA ROSA A STONY PT RD NR COTATI CA,,,,,,,,,4.16,29,58.9,"Laguna De Santa Rosa A Stony Pt Rd Nr Cotati, CA",38.35213667,-122.7441551,0,0.01,18010110,60,11/6/1998,11/29/2022,107.3151,POINT (-122.7441551 38.35213667)
11465750,LAGUNA DE SANTA ROSA C NR SEBASTOPOL CA,0.1,102,14.5,29.5,4,,,38.7,10.6,75,143.8,"Laguna De Santa Rosa C Nr Sebastopol, CA",38.42546874,-122.8291584,0,0.01,18010110,10,10/6/2006,7/12/2007,209.2266,POINT (-122.8291584 38.42546874)
11466320,SANTA ROSA C A WILLOWSIDE RD NR SANTA ROSA CA,76.8,669,23.6,40,14,,,40.2,12.1,86,162.3,"Santa Rosa C A Willowside Rd Nr Santa Rosa, CA",38.44519026,-122.8072129,2.36,0.16,18010110,60,12/9/1998,11/29/2022,199.3878,POINT (-122.8072129 38.44519026)
11466800,MARK WEST C NR MIRABEL HEIGHTS CA,251.7,509,18.3,31.5,11,,,39.5,32.5,234,484.5,"Mark West C Nr Mirabel Heights, CA",38.49407838,-122.8533258,50,1.6,18010110,10,11/28/2017,4/30/2018,652.1787,POINT (-122.8533258 38.49407838)
11467000,RUSSIAN R A HACIENDA BRIDGE NR GUERNEVILLE CA,1338,1109,26.8,11.6,2.9,,,45.3,305.8,2122,6754,"Russian R A Hacienda Bridge Nr Guerneville, CA",38.50852336,-122.9277737,20.14,0.01,18010110,10,1/10/1964,11/30/2022,3465.202,POINT (-122.9277737 38.50852336)
11467200,AUSTIN C NR CAZADERO CA,62.8,1011,54.9,2.3,0.1,,,64.1,18.3,152,304.4,"Austin C Nr Cazadero, CA",38.5065797,-123.0697239,40,20,18010110,60,6/1/1959,11/29/2022,162.6129,POINT (-123.0697239 38.5065797)
11516530,KLAMATH R BL IRON GATE DAM CA,8299,4879,23.3,4,0.4,,,23,648.8,1884,3753,"Klamath R Bl Iron Gate Dam, CA",41.92791865,-122.4441882,2162.44,0.01,18010206,10,10/1/1962,11/30/2003,21541.15,POINT (-122.4441882 41.92791865)
11520500,KLAMATH R NR SEIAD VALLEY CA,0.1,2868,49.8,1.3,0,,,55.7,1168,3420,7453,"Klamath R Nr Seiad Valley, CA",41.8537379,-123.2322733,1313.78,0.16,18010206,10,10/1/1963,5/31/1979,27502.78,POINT (-123.2322733 41.8537379)
11517000,SHASTA R NR MONTAGUE CA,666.5,4208,21.2,3.6,1,,,30.1,82.4,130,240.8,"Shasta R Nr  Montague, CA",41.70903196,-122.5380787,2458,33,18010207,10,10/1/2001,9/29/2008,1726.024,POINT (-122.5380787 41.70903196)
11517500,SHASTA R NR YREKA CA,790.5,4028,19.8,4.1,1.1,,,28.7,83.5,176,373,"Shasta R Nr Yreka, CA",41.8229179,-122.5955813,2000,33,18010207,10,6/16/1965,11/26/2003,2047.286,POINT (-122.5955813 41.8229179)
11519500,SCOTT R NR FORT JONES CA,661.7,4333,30,3.7,0.3,,,33.2,149.4,584,1383,"Scott R Nr Fort Jones, CA",41.64069017,-123.015037,2623.8,0.01,18010208,60,10/1/1941,11/29/2022,1713.614,POINT (-123.015037 41.64069017)
11521500,INDIAN C NR HAPPY CAMP CA,119.5,3696,57.4,3.3,0.2,,,75.9,155.9,405,778,"Indian C Nr Happy Camp, CA",41.83512325,-123.3831113,1198.37,0.01,18010209,60,12/15/1956,11/29/2022,309.6648,POINT (-123.3831113 41.83512325)
11523000,KLAMATH R A ORLEANS,12157,4575,29.4,3.8,0.4,,,30.9,3086,8006,16890,"Klamath R A, Orleans",41.3034599,-123.5345036,355.98,0.01,18010209,10,10/19/1965,11/30/2022,31496.02,POINT (-123.5345036 41.3034599)
11530500,KLAMATH R NR KLAMATH CA,0,137,75.5,0,0,,,73.2,7337,16625,39830,"Klamath R Nr Klamath, CA",41.5109543,-123.9795164,,,18010209,10,11/5/1965,11/30/2003,40911.63,POINT (-123.9795164 41.5109543)
11522500,SALMON R A SOMES BAR CA,0,1394,80.4,2.5,0,,,60.1,667.3,1804,3560,"Salmon R A Somes Bar, CA",41.3765154,-123.4770026,482.97,0.01,18010210,10,10/1/1965,5/31/1979,1943.12,POINT (-123.4770026 41.3765154)
11523200,TRINITY R AB COFFEE C NR TRINITY CENTER CA,148,5340,52.7,0.8,0.3,,,58.3,124.6,401,867.4,"Trinity R Ab Coffee C Nr Trinity Center, CA",41.1112571,-122.7055788,2536.93,0.01,18010211,60,10/1/1957,11/29/2022,382.9356,POINT (-122.7055788 41.1112571)
11525500,TRINITY R A LEWISTON CA,718.6,4643,49.6,5.7,0.2,,,57,166.9,678,1977,"Trinity R A Lewiston, CA",40.7247222,-122.801111,1830,33,18010211,10,7/22/1959,11/30/2022,1861.691,POINT (-122.801111 40.7247222)
11525530,RUSH C NR LEWISTON CA,22.5,3481,53.9,3.8,0.1,,,42.9,13.1,38,71.2,"Rush C Nr Lewiston, CA",40.7245899,-122.8347458,1837,33,18010211,60,10/1/2002,11/29/2022,58.2327,POINT (-122.8347458 40.7245899)
11525655,TRINITY R BL LIMEKILN GULCH NR DOUGLAS CITY CA,811,4472,49.5,5.6,0.2,,,55.3,363.8,869,2233,"Trinity R Bl Limekiln Gulch Nr Douglas City, CA",40.6726453,-122.9205805,1650,33,18010211,10,4/29/1981,9/27/1991,2099.82,POINT (-122.9205805 40.6726453)
11525670,INDIAN C NR DOUGLAS CITY CA,33.6,3597,47.4,1.9,0,,,46.9,7.37,32,69.8,"Indian C Nr Douglas City, CA",40.65181225,-122.9144689,1700,66,18010211,60,10/1/2004,11/29/2022,86.8896,POINT (-122.9144689 40.65181225)
11525854,TRINITY R A DOUGLAS CITY CA,931.4,4325,49.1,5.6,0.2,,,53.9,572.2,1061,2084,"Trinity R A Douglas City, CA",40.64527778,-122.9566667,1597,66,18010211,10,10/1/2019,11/30/2022,2412.423,POINT (-122.9566667 40.64527778)
11526250,TRINITY R A JUNCTION CITY CA,1058.9,4190,49.3,5.3,0.2,,,52.3,603.1,1173,2314,"Trinity R A Junction City, CA",40.7284768,-123.0619736,1445.13,0.01,18010211,60,10/1/2002,11/29/2022,2742.322,POINT (-123.0619736 40.7284768)
11526400,TRINITY R AB NF TRINITY R NR HELENA CA,1136.3,4191,48.6,5.2,0.2,,,52.2,699.5,1364,2638,"Trinity R Ab Nf Trinity R Nr Helena, CA",40.76653148,-123.1144757,1380,66,18010211,10,10/1/2019,11/30/2022,2942.897,POINT (-123.1144757 40.76653148)
11527000,TRINITY R NR BURNT RANCH CA,0,1063,61,0,0,,,47.7,629.9,1879,5369,"Trinity R Nr Burnt Ranch, CA",40.7887498,-123.4400401,944.05,0.01,18010211,10,10/1/1961,9/29/1983,3727.024,POINT (-123.4400401 40.7887498)
11530000,TRINITY R A HOOPA CA,2854,3770,53.1,3.9,0.2,,,57.6,1717,4750,12660,"Trinity R A Hoopa, CA",41.049852,-123.673668,274.82,0.01,18010211,10,2/28/1964,11/30/2022,7390.958,POINT (-123.673668 41.049852)
11528700,SF TRINITY R BL HYAMPOM CA,,,,,,,,,300.1,1280,3413,"Sf Trinity R Bl Hyampom, CA",40.6498627,-123.4942046,1211.37,0.01,18010212,10,10/2/1965,5/29/1979,1980.083,POINT (-123.4942046 40.6498627)
11345500,SF PIT R NR LIKELY CA,259.5,6271,16.5,2,0.1,,,21.8,36.4,86,179.6,"Sf Pit R Nr Likely, CA",41.2307286,-120.4371726,4508,20,18020002,60,10/1/1928,11/29/2022,672.2126,POINT (-120.4371726 41.2307286)
11348500,PIT R NR CANBY CA,1499.8,5341,10.4,2.5,0.2,,,18.8,25.8,233,647.6,"Pit R Nr Canby, CA",41.40600116,-120.9277458,4270.11,0.16,18020002,10,3/1/1965,1/31/1979,3884.106,POINT (-120.9277458 41.40600116)
